[
    {
        "name": "Albert Memorial",
        "address": "Kensington Gardens, London, United Kingdom",
        "id": 35555,
        "lat": 51.502399,
        "lng": -0.1778
    },
    {
        "name": "Holland Park Salon",
        "address": "31 St Anns Road, London, United Kingdom",
        "id": 35574,
        "lat": 51.503005,
        "lng": -0.204154
    },
    {
        "name": "Freud Museum",
        "address": "20 Maresfield Gardens, London, United Kingdom",
        "id": 35771,
        "lat": 51.548352,
        "lng": -0.177433
    },
    {
        "name": "Bloomsbury Square Gardens",
        "address": "London, United Kingdom",
        "id": 35778,
        "lat": 51.51905,
        "lng": -0.12279
    },
    {
        "name": "Mile End Stadium",
        "address": "190 Burdett Road, London, United Kingdom",
        "id": 36106,
        "lat": 51.518409,
        "lng": -0.032492
    },
    {
        "name": "Gladstone Park",
        "address": "Dolis Hill Lane, London, United Kingdom",
        "id": 38409,
        "lat": 51.558149,
        "lng": -0.237014
    },
    {
        "name": "Wandsworth Park",
        "address": "London, United Kingdom",
        "id": 40324,
        "lat": 51.46294,
        "lng": -0.206066
    },
    {
        "name": "William Morris Gallery",
        "address": "Lloyd Park, Forest Road, London, United Kingdom",
        "id": 42401,
        "lat": 51.591229,
        "lng": -0.020353
    },
    {
        "name": "Trinity Bar",
        "address": "378-380 Station Road, Harrow, United Kingdom",
        "id": 44388,
        "lat": 51.579128,
        "lng": -0.333755
    },
    {
        "name": "Lordship Recreation Ground",
        "address": "Lordship Lane, London, United Kingdom",
        "id": 47966,
        "lat": 51.59452,
        "lng": -0.087224
    },
    {
        "name": "Home Of Charles Darwin",
        "address": "Luxted Road, Downe, United Kingdom",
        "id": 51475,
        "lat": 51.331535,
        "lng": 0.053453
    },
    {
        "name": "Valence House Museum",
        "address": "Beacontree Avenue, London, United Kingdom",
        "id": 53699,
        "lat": 51.558289,
        "lng": 0.134181
    },
    {
        "name": "Holland Park",
        "address": "Ilchester Place, London, United Kingdom",
        "id": 216694,
        "lat": 51.501126,
        "lng": -0.201697
    },
    {
        "name": "The Penthouse London",
        "address": "1 Leicester Street, London, United Kingdom",
        "id": 216827,
        "lat": 51.510827,
        "lng": -0.130948
    },
    {
        "name": "Kings Place",
        "address": "90 York Way, London, United Kingdom",
        "id": 216848,
        "lat": 51.534985,
        "lng": -0.122
    },
    {
        "name": "The British Library",
        "address": "96 Euston Road, London, United Kingdom",
        "id": 216849,
        "lat": 51.529251,
        "lng": -0.126753
    },
    {
        "name": "Town Park",
        "address": "Enfield, United Kingdom",
        "id": 216931,
        "lat": 51.649211,
        "lng": -0.086205
    },
    {
        "name": "Burgess Park",
        "address": "81 Picton Street, London, United Kingdom",
        "id": 216932,
        "lat": 51.48427,
        "lng": -0.084052
    },
    {
        "name": "Harrow Skatepark",
        "address": "Harrow, United Kingdom",
        "id": 217283,
        "lat": 51.593133,
        "lng": -0.32566
    },
    {
        "name": "London Motor Museum",
        "address": "3 Nestles Avenue, Hayes, United Kingdom",
        "id": 51036,
        "lat": 51.501884,
        "lng": -0.420879
    },
    {
        "name": "Surbiton Raceway",
        "address": "Surbiton Town Sports Club, Riverhill Mews, Worcester Park, Surrey, United Kingdom",
        "id": 217251,
        "lat": 51.375732,
        "lng": -0.268028
    },
    {
        "name": "The Gym Kingston",
        "address": "Eve House, Adams Walk, Eden Street, Kingston, London, United Kingdom",
        "id": 217321,
        "lat": 51.410265,
        "lng": -0.302149
    },
    {
        "name": "Vue Westfield London",
        "address": "Westfield Shopping Town, White City, London, United Kingdom",
        "id": 217382,
        "lat": 51.508548,
        "lng": -0.220212
    },
    {
        "name": "Legends Boxing Gym",
        "address": "4 Kew Road, Kew, United Kingdom",
        "id": 245750,
        "lat": 51.486059,
        "lng": -0.28725
    },
    {
        "name": "Arch Health & Fitness",
        "address": "Kew Bridge, Richmond, United Kingdom",
        "id": 245755,
        "lat": 51.486596,
        "lng": -0.287552
    },
    {
        "name": "Vanya's Beauty Salon",
        "address": "44 Saint Mary's Road, London, Ealing, United Kingdom",
        "id": 245761,
        "lat": 51.505968,
        "lng": -0.305352
    },
    {
        "name": "Hampstead Pergola",
        "address": "Inverforth Close, United Kingdom",
        "id": 245807,
        "lat": 51.56519,
        "lng": -0.182166
    },
    {
        "name": "AR Motive",
        "address": "Dephna House, 119 Neasden Lane, London, United Kingdom",
        "id": 245821,
        "lat": 51.554529,
        "lng": -0.249997
    },
    {
        "name": "Gloves Boxing Club",
        "address": "198a Broadhurst Gardens, London, United Kingdom",
        "id": 245840,
        "lat": 51.546528,
        "lng": -0.190668
    },
    {
        "name": "Latelys",
        "address": "311 Kilburn High Road, London, United Kingdom",
        "id": 245847,
        "lat": 51.546373,
        "lng": -0.191415
    },
    {
        "name": "Fit 4 Less",
        "address": "34-36 Kilburn High Road, London, United Kingdom",
        "id": 245851,
        "lat": 51.536939,
        "lng": -0.191891
    },
    {
        "name": "Garden Awakenings",
        "address": "25 Sherrick Green Road, London, United Kingdom",
        "id": 245855,
        "lat": 51.552076,
        "lng": -0.232174
    },
    {
        "name": "Synergy Studio",
        "address": "31 Tottenham Lane, London, United Kingdom",
        "id": 245907,
        "lat": 51.58502,
        "lng": -0.114996
    },
    {
        "name": "Morefit Personal Training",
        "address": "Clifton House, Clifton Terrace, London, United Kingdom",
        "id": 245908,
        "lat": 51.565678,
        "lng": -0.107968
    },
    {
        "name": "LIMAZULU PROJECT SPACE",
        "address": "Unit 3J, Omega Works, 167 Hermitage Road, London, United Kingdom",
        "id": 245915,
        "lat": 51.575872,
        "lng": -0.092202
    },
    {
        "name": "I Borboni",
        "address": "386 Green Lanes, London, United Kingdom",
        "id": 245916,
        "lat": 51.577699,
        "lng": -0.098949
    },
    {
        "name": "Florentia",
        "address": "Florentia Clothing Village, Vale Rd, London, United Kingdom",
        "id": 245921,
        "lat": 51.576288,
        "lng": -0.089065
    },
    {
        "name": "Pura Beauty",
        "address": "138 Crouch Hill, London, Crouch End, United Kingdom",
        "id": 245922,
        "lat": 51.577939,
        "lng": -0.123452
    },
    {
        "name": "Maximum Fitness",
        "address": "144 Fortess Road, London, United Kingdom",
        "id": 245956,
        "lat": 51.556252,
        "lng": -0.138676
    },
    {
        "name": "Optique 20 20",
        "address": "194 Haverstock Hill, Belsize Park, London, United Kingdom",
        "id": 245969,
        "lat": 51.550566,
        "lng": -0.164661
    },
    {
        "name": "Oddballs London",
        "address": "Unit 200b, Camden Lock Place, Chalk Farm Road, London, United Kingdom",
        "id": 245986,
        "lat": 51.541696,
        "lng": -0.146005
    },
    {
        "name": "Stephanie Guimond Pilates",
        "address": "30 Princess Road, London, United Kingdom",
        "id": 245999,
        "lat": 51.539196,
        "lng": -0.151862
    },
    {
        "name": "Karoon Taekwondo Club",
        "address": "262 Holloway Road, London, Islington, United Kingdom",
        "id": 246033,
        "lat": 51.553662,
        "lng": -0.113356
    },
    {
        "name": "London Grounds and Garden Maintenance",
        "address": "19 Warlters Close, London, United Kingdom",
        "id": 246034,
        "lat": 51.555704,
        "lng": -0.119696
    },
    {
        "name": "Olden Garden",
        "address": "Whistler Street, London, United Kingdom",
        "id": 246048,
        "lat": 51.551684,
        "lng": -0.10463
    },
    {
        "name": "Springhealth Gym",
        "address": "400-404 York Way, Islington, United Kingdom",
        "id": 246059,
        "lat": 51.54863,
        "lng": -0.128372
    },
    {
        "name": "New River - Express Fitness for Women",
        "address": "321 Essex Rd, London, United Kingdom",
        "id": 246076,
        "lat": 51.543755,
        "lng": -0.090438
    },
    {
        "name": "Centralheat Acton",
        "address": "14-16 Churchfield Road, London, United Kingdom",
        "id": 246110,
        "lat": 51.508921,
        "lng": -0.263941
    },
    {
        "name": "My Fitness Studio",
        "address": "9 Conlan Street, London, United Kingdom",
        "id": 246121,
        "lat": 51.525571,
        "lng": -0.211252
    },
    {
        "name": "Espace Prive",
        "address": "1 Courtnell Street, London, United Kingdom",
        "id": 246161,
        "lat": 51.51562,
        "lng": -0.198779
    },
    {
        "name": "Meanwhile Gardens Community Association",
        "address": "156-158 Kensal Road, London, United Kingdom",
        "id": 246174,
        "lat": 51.523365,
        "lng": -0.20412
    },
    {
        "name": "Turning Leaves \"Transforming the Garden\"",
        "address": "82 Sinclair Rd, London, United Kingdom",
        "id": 246218,
        "lat": 51.514477,
        "lng": -0.188548
    },
    {
        "name": "West4 Gym",
        "address": "Sutton Lane, Chiswick, United Kingdom",
        "id": 246234,
        "lat": 51.489253,
        "lng": -0.270001
    },
    {
        "name": "Genesis Mind and Body",
        "address": "LG 21 The Shepherds Building, East Entrance Richmond Way, London, Shepherds Bush, United Kingdom",
        "id": 246303,
        "lat": 51.502531,
        "lng": -0.217655
    },
    {
        "name": "Zen Spa London",
        "address": "32-34 Notting Hill Gate, London, United Kingdom",
        "id": 246321,
        "lat": 51.509555,
        "lng": -0.194496
    },
    {
        "name": "Grand Kobkun",
        "address": "42 Queensway, London, United Kingdom",
        "id": 246322,
        "lat": 51.511715,
        "lng": -0.187287
    },
    {
        "name": "Aqua Sheko",
        "address": "14 Holland Street, London, United Kingdom",
        "id": 246336,
        "lat": 51.502256,
        "lng": -0.188917
    },
    {
        "name": "Baby Spa By Laura Sevenus",
        "address": "6 Lancer Square, London, United Kingdom",
        "id": 246343,
        "lat": 51.502626,
        "lng": -0.190929
    },
    {
        "name": "Dermadoc Clinic",
        "address": "96 Fulham Palace Road, London, United Kingdom",
        "id": 246368,
        "lat": 51.48819,
        "lng": -0.222807
    },
    {
        "name": "18 Stafford Terrace",
        "address": "18 Stafford Terrace, London, United Kingdom",
        "id": 246375,
        "lat": 51.500425,
        "lng": -0.196938
    },
    {
        "name": "Club Kensington Gym",
        "address": "201-207 High Street, London, United Kingdom",
        "id": 246379,
        "lat": 51.499659,
        "lng": -0.196534
    },
    {
        "name": "Maggie & Rose",
        "address": "58-60 Pembroke Road, London, United Kingdom",
        "id": 246380,
        "lat": 51.494536,
        "lng": -0.20079
    },
    {
        "name": "Lord's, Middlesex C.C.C. Practice Ground",
        "address": "London, United Kingdom",
        "id": 246423,
        "lat": 51.53049,
        "lng": -0.171034
    },
    {
        "name": "Kieser Training",
        "address": "Greater London House, Hampstead Road, London, United Kingdom",
        "id": 246437,
        "lat": 51.533347,
        "lng": -0.139575
    },
    {
        "name": "The Regent's Park Hub",
        "address": "Regents Park, London, United Kingdom",
        "id": 246439,
        "lat": 51.532618,
        "lng": -0.158228
    },
    {
        "name": "Ringtone Health & Fitness Gym",
        "address": "141-153 Drummond Street, London, United Kingdom",
        "id": 246441,
        "lat": 51.526566,
        "lng": -0.137872
    },
    {
        "name": "Hua Ren Tang",
        "address": "64 Edgware Road, London, United Kingdom",
        "id": 246474,
        "lat": 51.515542,
        "lng": -0.163489
    },
    {
        "name": "Lemongrass Boutique Spa",
        "address": "8 Seymour Place, London, United Kingdom",
        "id": 246490,
        "lat": 51.514672,
        "lng": -0.160987
    },
    {
        "name": "Rebecca Hossack Art Gallery",
        "address": "2A Conway Street, London, United Kingdom",
        "id": 246538,
        "lat": 51.521974,
        "lng": -0.139508
    },
    {
        "name": "The Gallery At 94",
        "address": "94 Cleveland Street, London, United Kingdom",
        "id": 246543,
        "lat": 51.522702,
        "lng": -0.14126
    },
    {
        "name": "VIVA Clinic",
        "address": "102 Harley Street, London, United Kingdom",
        "id": 246548,
        "lat": 51.521212,
        "lng": -0.147829
    },
    {
        "name": "The Third Space",
        "address": "Bulstrode Place, London, United Kingdom",
        "id": 246555,
        "lat": 51.518206,
        "lng": -0.150536
    },
    {
        "name": "Elements Massage London",
        "address": "41 Paddington Street, Marylebone, United Kingdom",
        "id": 246565,
        "lat": 51.520374,
        "lng": -0.155859
    },
    {
        "name": "Legende Celebrity Art",
        "address": "54 Baker Street, London, United Kingdom",
        "id": 246574,
        "lat": 51.51892,
        "lng": -0.155906
    },
    {
        "name": "Project London",
        "address": "78 Wells Street, London, United Kingdom",
        "id": 246596,
        "lat": 51.516389,
        "lng": -0.137244
    },
    {
        "name": "Gallery Vela",
        "address": "38 Langham Street, London, United Kingdom",
        "id": 246618,
        "lat": 51.518883,
        "lng": -0.141785
    },
    {
        "name": "Dermadoc Clinic",
        "address": "2 Wimpole Street, London, United Kingdom",
        "id": 246638,
        "lat": 51.515814,
        "lng": -0.14704
    },
    {
        "name": "Spa Fields Park",
        "address": "London, United Kingdom",
        "id": 246672,
        "lat": 51.525801,
        "lng": -0.107789
    },
    {
        "name": "Argyle Square Public Basketball Court",
        "address": "Argyle Square, United Kingdom",
        "id": 246702,
        "lat": 51.529318,
        "lng": -0.122598
    },
    {
        "name": "Tusch und Egon",
        "address": "2 Chadwell Street, London, United Kingdom",
        "id": 246759,
        "lat": 51.530449,
        "lng": -0.106058
    },
    {
        "name": "Health Aroma",
        "address": "Thistle City Barbican Hotel, Central Street, London, United Kingdom",
        "id": 246765,
        "lat": 51.527495,
        "lng": -0.096312
    },
    {
        "name": "Queen Square Park and Garden",
        "address": "Queen Square, London, United Kingdom",
        "id": 246798,
        "lat": 51.521689,
        "lng": -0.122474
    },
    {
        "name": "The British Postal Museum & Archive",
        "address": "Freeling House, Phoenix Place, London, United Kingdom",
        "id": 246805,
        "lat": 51.523988,
        "lng": -0.112489
    },
    {
        "name": "Laser Strike - Laser Combat",
        "address": "27 Old Gloucester Street, London, United Kingdom",
        "id": 246813,
        "lat": 51.521478,
        "lng": -0.121706
    },
    {
        "name": "The Den & Centro Bar",
        "address": "18 West Central Street, London, United Kingdom",
        "id": 246835,
        "lat": 51.516741,
        "lng": -0.125152
    },
    {
        "name": "Lazarides",
        "address": "11 Rathbone Place, London, United Kingdom",
        "id": 246836,
        "lat": 51.516953,
        "lng": -0.133371
    },
    {
        "name": "The Outsiders London",
        "address": "8 Greek Street, London, United Kingdom",
        "id": 246840,
        "lat": 51.514541,
        "lng": -0.131101
    },
    {
        "name": "Miabella",
        "address": "12-13 Greek Street, London, United Kingdom",
        "id": 246845,
        "lat": 51.51435,
        "lng": -0.130981
    },
    {
        "name": "Austin-Desmond Fine Art Ltd",
        "address": "68-69 Great Russell Street, London, United Kingdom",
        "id": 246847,
        "lat": 51.518844,
        "lng": -0.124451
    },
    {
        "name": "Abbott and Holder",
        "address": "30 Museum Street, London, United Kingdom",
        "id": 246854,
        "lat": 51.517911,
        "lng": -0.125862
    },
    {
        "name": "The Movie Poster Art Gallery",
        "address": "1 Colville Place, London, United Kingdom",
        "id": 246855,
        "lat": 51.519591,
        "lng": -0.134572
    },
    {
        "name": "The Portable Antiquities Scheme",
        "address": "The British Museum, 41 Russell Square, London, United Kingdom",
        "id": 246864,
        "lat": 51.519454,
        "lng": -0.126932
    },
    {
        "name": "Beauty Box Nail Bar",
        "address": "9 Great Russell Street, London, United Kingdom",
        "id": 246868,
        "lat": 51.517259,
        "lng": -0.12974
    },
    {
        "name": "The Library and Museum of Freemasonry",
        "address": "Freemasons Hall, 60 Great Queen Street, City of London, United Kingdom",
        "id": 246894,
        "lat": 51.515019,
        "lng": -0.12161
    },
    {
        "name": "Museum of the Order of Saint John",
        "address": "St John\u2019s Gate, Saint John Street, London, United Kingdom",
        "id": 246911,
        "lat": 51.52207,
        "lng": -0.102872
    },
    {
        "name": "23 Paul Street",
        "address": "23-25 Paul Street, London, United Kingdom",
        "id": 246951,
        "lat": 51.523017,
        "lng": -0.084565
    },
    {
        "name": "For Your Eyes Only",
        "address": "23 City Road, The City, London, United Kingdom",
        "id": 246953,
        "lat": 51.522853,
        "lng": -0.087115
    },
    {
        "name": "Signal Gallery",
        "address": "32 Paul Street, London, United Kingdom",
        "id": 246954,
        "lat": 51.523533,
        "lng": -0.08419
    },
    {
        "name": "Bootcamp Pilates (East London)",
        "address": "152-160 City Road, London, East London, United Kingdom",
        "id": 246959,
        "lat": 51.527329,
        "lng": -0.088781
    },
    {
        "name": "Curious Duke Gallery",
        "address": "207 Whitecross Street, London, United Kingdom",
        "id": 246963,
        "lat": 51.524164,
        "lng": -0.093834
    },
    {
        "name": "Dr. Johnson's House",
        "address": "17 Gough Square, London, United Kingdom",
        "id": 246974,
        "lat": 51.515007,
        "lng": -0.108162
    },
    {
        "name": "Postman's Park",
        "address": "London, United Kingdom",
        "id": 246975,
        "lat": 51.51684,
        "lng": -0.097665
    },
    {
        "name": "Fitness First Holborn Circus",
        "address": "1 Thavies Inn, London, United Kingdom",
        "id": 246985,
        "lat": 51.516755,
        "lng": -0.107692
    },
    {
        "name": "Guildhall Art Gallery",
        "address": "Guildhall Yard, London, United Kingdom",
        "id": 246991,
        "lat": 51.515507,
        "lng": -0.091594
    },
    {
        "name": "Clockmakers' Museum (Guildhall Library)",
        "address": "London, United Kingdom",
        "id": 246992,
        "lat": 51.516088,
        "lng": -0.092733
    },
    {
        "name": "Slim Jims",
        "address": "1 Finsbury Avenue, London, United Kingdom",
        "id": 246994,
        "lat": 51.519609,
        "lng": -0.084755
    },
    {
        "name": "Cre8 Fitness",
        "address": "8 Angel Court, London, United Kingdom",
        "id": 247005,
        "lat": 51.51498,
        "lng": -0.085659
    },
    {
        "name": "Embody Fitness",
        "address": "1 Bartholomew Lane, London, United Kingdom",
        "id": 247014,
        "lat": 51.514432,
        "lng": -0.087552
    },
    {
        "name": "Hyde Park",
        "address": "London, United Kingdom",
        "id": 247021,
        "lat": 51.507268,
        "lng": -0.16573
    },
    {
        "name": "Wellington Club",
        "address": "116A Knightsbridge, London, United Kingdom",
        "id": 247023,
        "lat": 51.501871,
        "lng": -0.162606
    },
    {
        "name": "Timothy Taylor Gallery",
        "address": "15 Carlos Place, London, United Kingdom",
        "id": 247045,
        "lat": 51.510545,
        "lng": -0.149697
    },
    {
        "name": "Spa Illuminata",
        "address": "63 South Audley Street, London, United Kingdom",
        "id": 247049,
        "lat": 51.509028,
        "lng": -0.151704
    },
    {
        "name": "Loewe Hermanos",
        "address": "125 Mount St, London, United Kingdom",
        "id": 247050,
        "lat": 51.510121,
        "lng": -0.148173
    },
    {
        "name": "Handel House Museum",
        "address": "25 Brook Street, London, United Kingdom",
        "id": 247092,
        "lat": 51.513079,
        "lng": -0.145818
    },
    {
        "name": "Hanover Square",
        "address": "London, United Kingdom",
        "id": 247093,
        "lat": 51.514222,
        "lng": -0.144189
    },
    {
        "name": "Elemis Day-Spa Mayfair",
        "address": "2 Lancashire Court, London, Mayfair, United Kingdom",
        "id": 247098,
        "lat": 51.512513,
        "lng": -0.145455
    },
    {
        "name": "Trinity House Paintings",
        "address": "50 Maddox Street, London, United Kingdom",
        "id": 247105,
        "lat": 51.512528,
        "lng": -0.143986
    },
    {
        "name": "Monica Vinader",
        "address": "14 South Molton Street, London, United Kingdom",
        "id": 247108,
        "lat": 51.513518,
        "lng": -0.147796
    },
    {
        "name": "H2 Bike Run",
        "address": "Dufours Place, London, United Kingdom",
        "id": 247134,
        "lat": 51.513476,
        "lng": -0.137447
    },
    {
        "name": "The Royal Institution of Great Britain",
        "address": "21 Albemarle Street, London, United Kingdom",
        "id": 247156,
        "lat": 51.509827,
        "lng": -0.142571
    },
    {
        "name": "Halcyon Gallery",
        "address": "144-146 New Bond Street, London, United Kingdom",
        "id": 247158,
        "lat": 51.511451,
        "lng": -0.143746
    },
    {
        "name": "BISCHOFF/WEISS",
        "address": "14A Hay Hill, London, United Kingdom",
        "id": 247167,
        "lat": 51.509035,
        "lng": -0.143608
    },
    {
        "name": "David Aaron Ancient Arts",
        "address": "22 Berkeley Square, London, United Kingdom",
        "id": 247171,
        "lat": 51.509097,
        "lng": -0.146077
    },
    {
        "name": "The Third Space",
        "address": "13 Sherwood Street, London, United Kingdom",
        "id": 247196,
        "lat": 51.51108,
        "lng": -0.135905
    },
    {
        "name": "Hauser and Wirth",
        "address": "196A Piccadilly, London, United Kingdom",
        "id": 247198,
        "lat": 51.508777,
        "lng": -0.137304
    },
    {
        "name": "Roadhouse",
        "address": "The Market At Covent Garden, 35 The Piazza, London, United Kingdom",
        "id": 35252,
        "lat": 51.511698,
        "lng": -0.121934
    },
    {
        "name": "Embargo 59",
        "address": "533B King's Road, London, United Kingdom",
        "id": 35514,
        "lat": 51.479964,
        "lng": -0.185283
    },
    {
        "name": "Electrowerkz",
        "address": "7 Torrens Street, London, United Kingdom",
        "id": 35533,
        "lat": 51.53226,
        "lng": -0.105219
    },
    {
        "name": "Crystal Palace Park",
        "address": "Thicket Road, London, Crystal Palace, United Kingdom",
        "id": 35576,
        "lat": 51.42185,
        "lng": -0.072385
    },
    {
        "name": "Golders Hill Park",
        "address": "London, United Kingdom",
        "id": 35580,
        "lat": 51.566784,
        "lng": -0.189134
    },
    {
        "name": "Paddington Recreation Ground",
        "address": "Randolph Avenue, London, United Kingdom",
        "id": 35584,
        "lat": 51.529968,
        "lng": -0.190358
    },
    {
        "name": "Kenwood House",
        "address": "Hampstead Lane, London, Hampstead, United Kingdom",
        "id": 35585,
        "lat": 51.571545,
        "lng": -0.16734
    },
    {
        "name": "Syon Park",
        "address": "Syon Park, London Road, Brentford, United Kingdom",
        "id": 35605,
        "lat": 51.477156,
        "lng": -0.315227
    },
    {
        "name": "Ham House and Garden",
        "address": "Ham Street, Ham, Richmond-upon-Thames, United Kingdom",
        "id": 35609,
        "lat": 51.444255,
        "lng": -0.314083
    },
    {
        "name": "Marble Hill Park",
        "address": "United Kingdom",
        "id": 35610,
        "lat": 51.4495,
        "lng": -0.311995
    },
    {
        "name": "Sutton House",
        "address": "2-4 Homerton High Street, London, United Kingdom",
        "id": 35619,
        "lat": 51.548595,
        "lng": -0.050366
    },
    {
        "name": "Golden Square",
        "address": "London, United Kingdom",
        "id": 35628,
        "lat": 51.511362,
        "lng": -0.137472
    },
    {
        "name": "Queen's House",
        "address": "Romney Road, London, United Kingdom",
        "id": 35682,
        "lat": 51.481218,
        "lng": -0.003747
    },
    {
        "name": "Finsbury Park",
        "address": "Endymion Road, London, United Kingdom",
        "id": 35691,
        "lat": 51.568712,
        "lng": -0.102706
    },
    {
        "name": "Potters Fields Park",
        "address": "London, United Kingdom",
        "id": 35697,
        "lat": 51.504253,
        "lng": -0.078301
    },
    {
        "name": "Mudchute Park",
        "address": "London, United Kingdom",
        "id": 35710,
        "lat": 51.492014,
        "lng": -0.010989
    },
    {
        "name": "Tower Hamlets Cemetery Park",
        "address": "Southern Grove, London, United Kingdom",
        "id": 35727,
        "lat": 51.523085,
        "lng": -0.027166
    },
    {
        "name": "Hainault Forest Country Park",
        "address": "United Kingdom",
        "id": 35737,
        "lat": 51.613617,
        "lng": 0.131749
    },
    {
        "name": "Serpentine Gallery",
        "address": "Kensington Gardens, London, United Kingdom",
        "id": 35761,
        "lat": 51.504575,
        "lng": -0.174922
    },
    {
        "name": "Kew Bridge Steam Museum",
        "address": "Green Dragon Lane, Brentford, United Kingdom",
        "id": 35762,
        "lat": 51.488925,
        "lng": -0.290633
    },
    {
        "name": "South London Gallery",
        "address": "67 Peckham Road, London, United Kingdom",
        "id": 35768,
        "lat": 51.474117,
        "lng": -0.079399
    },
    {
        "name": "Garden Museum",
        "address": "5 Lambeth Palace Road, London, United Kingdom",
        "id": 35770,
        "lat": 51.49467,
        "lng": -0.120285
    },
    {
        "name": "Museum of Brands, Packaging and Advertising",
        "address": "2 Colville Mews, London, United Kingdom",
        "id": 35777,
        "lat": 51.515193,
        "lng": -0.201382
    },
    {
        "name": "Discover",
        "address": "383-387 High Street, London, United Kingdom",
        "id": 35784,
        "lat": 51.538985,
        "lng": -0.00033
    },
    {
        "name": "Everyman Baker St",
        "address": "96-98 Baker Street, London, United Kingdom",
        "id": 35975,
        "lat": 51.520499,
        "lng": -0.156629
    },
    {
        "name": "Cineworld Cinemas",
        "address": "142 Fulham Road, London, United Kingdom",
        "id": 35995,
        "lat": 51.487101,
        "lng": -0.179279
    },
    {
        "name": "Renoir Cinema",
        "address": "The Brunswick, London, United Kingdom",
        "id": 36002,
        "lat": 51.524128,
        "lng": -0.123094
    },
    {
        "name": "Grosvenor Victoria Casino",
        "address": "150-162 Edgware Road, London, United Kingdom",
        "id": 36004,
        "lat": 51.517136,
        "lng": -0.165212
    },
    {
        "name": "Cineworld Cinemas",
        "address": "279 King's Road, London, United Kingdom",
        "id": 36019,
        "lat": 51.485598,
        "lng": -0.173285
    },
    {
        "name": "Crystal Palace National Sports Centre",
        "address": "Ledrington Road, London, United Kingdom",
        "id": 36097,
        "lat": 51.419095,
        "lng": -0.068858
    },
    {
        "name": "Peckham Rye Park",
        "address": "London, United Kingdom",
        "id": 36173,
        "lat": 51.458508,
        "lng": -0.062963
    },
    {
        "name": "The Phoenix Cinema",
        "address": "52 High Road, East Finchley, London, United Kingdom",
        "id": 36223,
        "lat": 51.588498,
        "lng": -0.163812
    },
    {
        "name": "The Palm Beach Casino",
        "address": "30 Berkeley Street, London, United Kingdom",
        "id": 36422,
        "lat": 51.508544,
        "lng": -0.14395
    },
    {
        "name": "Vestry House Museum",
        "address": "Vestry Road, London, United Kingdom",
        "id": 36434,
        "lat": 51.583963,
        "lng": -0.012542
    },
    {
        "name": "Curzon",
        "address": "206 King's Road, London, United Kingdom",
        "id": 36480,
        "lat": 51.488113,
        "lng": -0.167413
    },
    {
        "name": "London Fields Fitness Studio",
        "address": "London, United Kingdom",
        "id": 36521,
        "lat": 51.540056,
        "lng": -0.057914
    },
    {
        "name": "Hill Garden and Pergola, Hampstead Heath",
        "address": "N End Way, United Kingdom",
        "id": 36629,
        "lat": 51.563944,
        "lng": -0.18202
    },
    {
        "name": "Orleans House Gallery",
        "address": "United Kingdom",
        "id": 36669,
        "lat": 51.447594,
        "lng": -0.319696
    },
    {
        "name": "Altab Ali Park",
        "address": "Alder Street, London, United Kingdom",
        "id": 36688,
        "lat": 51.516138,
        "lng": -0.068416
    },
    {
        "name": "Russell Square",
        "address": "London, United Kingdom",
        "id": 36730,
        "lat": 51.52184,
        "lng": -0.125927
    },
    {
        "name": "PeckhamPlex",
        "address": "95A Rye Lane, London, United Kingdom",
        "id": 36736,
        "lat": 51.470817,
        "lng": -0.068609
    },
    {
        "name": "Lincoln's Inn Fields",
        "address": "Newman's Row, London, United Kingdom",
        "id": 36833,
        "lat": 51.516034,
        "lng": -0.116644
    },
    {
        "name": "Cineworld",
        "address": "63-65 Haymarket, London, United Kingdom",
        "id": 36920,
        "lat": 51.508749,
        "lng": -0.13233
    },
    {
        "name": "Kelsey Park",
        "address": "Manor Way, London, United Kingdom",
        "id": 36933,
        "lat": 51.402,
        "lng": -0.023
    },
    {
        "name": "Buddha Lounge",
        "address": "36-38 North Street, Romford, United Kingdom",
        "id": 37026,
        "lat": 51.579523,
        "lng": 0.179662
    },
    {
        "name": "King George's Park",
        "address": "Burr Road, London, United Kingdom",
        "id": 37214,
        "lat": 51.452111,
        "lng": -0.194743
    },
    {
        "name": "Curzon Mayfair Cinema",
        "address": "38 Curzon Street, London, United Kingdom",
        "id": 37275,
        "lat": 51.50651,
        "lng": -0.147975
    },
    {
        "name": "Eaton Square Gardens",
        "address": "London, United Kingdom",
        "id": 37419,
        "lat": 51.495529,
        "lng": -0.152259
    },
    {
        "name": "Lexi Cinema",
        "address": "194b Chamberlayne Rd, London, United Kingdom",
        "id": 37450,
        "lat": 51.537745,
        "lng": -0.222619
    },
    {
        "name": "The Gym Wood Green",
        "address": "725-731 Lordship Lane, London, United Kingdom",
        "id": 37543,
        "lat": 51.597212,
        "lng": -0.10806
    },
    {
        "name": "Priory Park",
        "address": "London, United Kingdom",
        "id": 37762,
        "lat": 51.585356,
        "lng": -0.126
    },
    {
        "name": "The Valley",
        "address": "Floyd Road, London, United Kingdom",
        "id": 38009,
        "lat": 51.486262,
        "lng": 0.036449
    },
    {
        "name": "Manor House Gardens",
        "address": "Taunton Road, Lee, United Kingdom",
        "id": 38374,
        "lat": 51.455447,
        "lng": 0.006796
    },
    {
        "name": "Central YMCA",
        "address": "112 Great Russell Street, London, United Kingdom",
        "id": 38481,
        "lat": 51.517287,
        "lng": -0.130403
    },
    {
        "name": "John Innes Park",
        "address": "London, United Kingdom",
        "id": 38719,
        "lat": 51.409288,
        "lng": -0.206954
    },
    {
        "name": "Thames Barrier Park",
        "address": "North Woolwich Road, London, United Kingdom",
        "id": 38735,
        "lat": 51.5009,
        "lng": 0.034819
    },
    {
        "name": "Oceana",
        "address": "154 Clarence Street, Kingston upon Thames, United Kingdom",
        "id": 38872,
        "lat": 51.411565,
        "lng": -0.300382
    },
    {
        "name": "Gambado ltd",
        "address": "7, Station Court, Townmead Road, London, United Kingdom",
        "id": 38945,
        "lat": 51.47414,
        "lng": -0.183472
    },
    {
        "name": "Showcase Cinemas",
        "address": "Jenkins Lane, Barking, United Kingdom",
        "id": 38967,
        "lat": 51.526421,
        "lng": 0.080916
    },
    {
        "name": "Vue",
        "address": "Fulham Broadway Retail Centre, Fulham Road, London, United Kingdom",
        "id": 38983,
        "lat": 51.480164,
        "lng": -0.194431
    },
    {
        "name": "Charlton Park",
        "address": "London, United Kingdom",
        "id": 39026,
        "lat": 51.480185,
        "lng": 0.04322
    },
    {
        "name": "Beddington Park",
        "address": "London, United Kingdom",
        "id": 39223,
        "lat": 51.372879,
        "lng": -0.146018
    },
    {
        "name": "Cotton Park",
        "address": "Cottons Approach, Romford, United Kingdom",
        "id": 39263,
        "lat": 51.576421,
        "lng": 0.174885
    },
    {
        "name": "Cineworld Hammersmith",
        "address": "207 King Street, London, United Kingdom",
        "id": 39303,
        "lat": 51.492576,
        "lng": -0.234725
    },
    {
        "name": "Selhurst Park Stadium",
        "address": "Whitehorse Lane, London, United Kingdom",
        "id": 39334,
        "lat": 51.39828,
        "lng": -0.085485
    },
    {
        "name": "Bacchus Late Bar and Venue",
        "address": "2 Union Street, Kingston upon Thames, United Kingdom",
        "id": 39434,
        "lat": 51.409762,
        "lng": -0.305279
    },
    {
        "name": "Old Deer Park",
        "address": "Twickenham Road, Richmond, United Kingdom",
        "id": 39450,
        "lat": 51.469155,
        "lng": -0.296159
    },
    {
        "name": "Richmond Green",
        "address": "Richmond, United Kingdom",
        "id": 39565,
        "lat": 51.461667,
        "lng": -0.306944
    },
    {
        "name": "Highgate Wood",
        "address": "Muswell Hill Road, London, United Kingdom",
        "id": 39869,
        "lat": 51.58163,
        "lng": -0.150804
    },
    {
        "name": "Cineworld",
        "address": "Staples Corner Retail Park, Geron Way, London, United Kingdom",
        "id": 39975,
        "lat": 51.568746,
        "lng": -0.22776
    },
    {
        "name": "Blythe Hill Fields",
        "address": "Blythe Hill Lane, London, United Kingdom",
        "id": 40059,
        "lat": 51.44736,
        "lng": -0.03585
    },
    {
        "name": "Haggerston Park",
        "address": "Audrey Street, London, United Kingdom",
        "id": 40222,
        "lat": 51.533056,
        "lng": -0.0675
    },
    {
        "name": "Jurassic Encounter Adventure Golf",
        "address": "World of Golf, Beverley Way, New Malden, United Kingdom",
        "id": 40227,
        "lat": 51.404311,
        "lng": -0.242098
    },
    {
        "name": "Stolenspace Gallery",
        "address": "17 Osborn Street, London, United Kingdom",
        "id": 40314,
        "lat": 51.516505,
        "lng": -0.070058
    },
    {
        "name": "Telegraph Hill",
        "address": "Pepys Road, London, United Kingdom",
        "id": 40338,
        "lat": 51.467055,
        "lng": -0.04652
    },
    {
        "name": "Friary Park",
        "address": "London, United Kingdom",
        "id": 40360,
        "lat": 51.6185,
        "lng": -0.1624
    },
    {
        "name": "PureGym London Wandsworth",
        "address": "52 Wandsworth High Street, London, United Kingdom",
        "id": 40429,
        "lat": 51.45689,
        "lng": -0.192071
    },
    {
        "name": "Coronation Gardens",
        "address": "Buckingham Road, London, United Kingdom",
        "id": 40485,
        "lat": 51.559426,
        "lng": -0.010862
    },
    {
        "name": "David Lloyd Hampton",
        "address": "Staines Road, Hampton, United Kingdom",
        "id": 40733,
        "lat": 51.436582,
        "lng": -0.372843
    },
    {
        "name": "Victoria Embankment Gardens",
        "address": "Victoria Embankment, City of Westminster, United Kingdom",
        "id": 40794,
        "lat": 51.507798,
        "lng": -0.121791
    },
    {
        "name": "Victoria Tower Gardens",
        "address": "London, United Kingdom",
        "id": 40831,
        "lat": 51.496944,
        "lng": -0.125
    },
    {
        "name": "Hilly Fields Stone Circle",
        "address": "London, United Kingdom",
        "id": 40935,
        "lat": 51.459425,
        "lng": -0.024426
    },
    {
        "name": "The Oaks Park",
        "address": "Banstead, United Kingdom",
        "id": 41021,
        "lat": 51.338376,
        "lng": -0.168582
    },
    {
        "name": "Gallery",
        "address": "411 Hendon Way, London, United Kingdom",
        "id": 41280,
        "lat": 51.582131,
        "lng": -0.227236
    },
    {
        "name": "Stationers Park",
        "address": "London, United Kingdom",
        "id": 41371,
        "lat": 51.579259,
        "lng": -0.111552
    },
    {
        "name": "Belgrave Square Garden",
        "address": "London, United Kingdom",
        "id": 41491,
        "lat": 51.499468,
        "lng": -0.15375
    },
    {
        "name": "East Greenwich Pleasaunce",
        "address": "Chevening Road, London, United Kingdom",
        "id": 41791,
        "lat": 51.484697,
        "lng": 0.013776
    },
    {
        "name": "Zabludowicz Collection",
        "address": "176 Prince of Wales Road, London, United Kingdom",
        "id": 41804,
        "lat": 51.546188,
        "lng": -0.153293
    },
    {
        "name": "Buckingham Palace Gardens",
        "address": "London, United Kingdom",
        "id": 41827,
        "lat": 51.50112,
        "lng": -0.146041
    },
    {
        "name": "Whittington Park",
        "address": "Holloway Road, London, United Kingdom",
        "id": 41865,
        "lat": 51.562,
        "lng": -0.129
    },
    {
        "name": "Colliers Wood Recreation Ground",
        "address": "London, United Kingdom",
        "id": 42254,
        "lat": 51.417856,
        "lng": -0.173451
    },
    {
        "name": "Curzon Richmond",
        "address": "Water Lane, Richmond, United Kingdom",
        "id": 42295,
        "lat": 51.459247,
        "lng": -0.306972
    },
    {
        "name": "Waterlow Park",
        "address": "London, United Kingdom",
        "id": 42793,
        "lat": 51.568492,
        "lng": -0.143816
    },
    {
        "name": "Kilburn Grange Park",
        "address": "London, United Kingdom",
        "id": 42902,
        "lat": 51.544086,
        "lng": -0.198191
    },
    {
        "name": "Kyoto Garden",
        "address": "100 Holland Park Avenue, London, United Kingdom",
        "id": 43132,
        "lat": 51.503045,
        "lng": -0.204661
    },
    {
        "name": "Greenwich Peninsula Ecology Park",
        "address": "Thames Park, John Harrison Way, London, United Kingdom",
        "id": 43170,
        "lat": 51.495342,
        "lng": 0.01573
    },
    {
        "name": "Marble Hill House",
        "address": "Richmond Road, London, United Kingdom",
        "id": 43455,
        "lat": 51.451533,
        "lng": -0.312655
    },
    {
        "name": "Old MacDonalds Farm",
        "address": "London, United Kingdom",
        "id": 43521,
        "lat": 51.625925,
        "lng": 0.235658
    },
    {
        "name": "Parliament Square",
        "address": "London, United Kingdom",
        "id": 43846,
        "lat": 51.500655,
        "lng": -0.126826
    },
    {
        "name": "British Music Experience",
        "address": "The O2 Bubble, The O2, Peninsula Square, London, North Greenwich, United Kingdom",
        "id": 43956,
        "lat": 51.503746,
        "lng": 0.003344
    },
    {
        "name": "Islington Tennis Centre",
        "address": "Market Road, London, United Kingdom",
        "id": 44028,
        "lat": 51.545987,
        "lng": -0.121885
    },
    {
        "name": "Forty Hall & Estate",
        "address": "Forty Hill, London, United Kingdom",
        "id": 44370,
        "lat": 51.669936,
        "lng": -0.06888
    },
    {
        "name": "Myatt's Fields",
        "address": "London, United Kingdom",
        "id": 44414,
        "lat": 51.474194,
        "lng": -0.102558
    },
    {
        "name": "Vue Cinemas",
        "address": "Hollywood Green, 180 High Road, London, United Kingdom",
        "id": 44422,
        "lat": 51.596993,
        "lng": -0.109159
    },
    {
        "name": "Thames Chase Forest",
        "address": "Pike Lane, Upminster, United Kingdom",
        "id": 44598,
        "lat": 51.551934,
        "lng": 0.28303
    },
    {
        "name": "Broomfield Park",
        "address": "London, United Kingdom",
        "id": 44682,
        "lat": 51.619455,
        "lng": -0.117588
    },
    {
        "name": "Kensington Memorial Park",
        "address": "Saint Marks Road, London, United Kingdom",
        "id": 44705,
        "lat": 51.520552,
        "lng": -0.219934
    },
    {
        "name": "Firepower: The Royal Artillery Museum",
        "address": "Royal Arsenal, London, United Kingdom",
        "id": 44749,
        "lat": 51.493919,
        "lng": 0.070664
    },
    {
        "name": "Wormholt Park",
        "address": "London, United Kingdom",
        "id": 44814,
        "lat": 51.510122,
        "lng": -0.237371
    },
    {
        "name": "Peter Harrison Planetarium",
        "address": "Royal Observatory, Blackheath Avenue, London, United Kingdom",
        "id": 45005,
        "lat": 51.47713,
        "lng": -0.000514
    },
    {
        "name": "Millennium Arena",
        "address": "Albert Bridge Rd, London, United Kingdom",
        "id": 45337,
        "lat": 51.48108,
        "lng": -0.151445
    },
    {
        "name": "Soho Gyms Earls Court",
        "address": "254 Earl's Court Road, London, United Kingdom",
        "id": 45585,
        "lat": 51.491839,
        "lng": -0.192622
    },
    {
        "name": "Allianz Park",
        "address": "Greenlands Lane, London, United Kingdom",
        "id": 45636,
        "lat": 51.603158,
        "lng": -0.223674
    },
    {
        "name": "Dulwich Park",
        "address": "College Road, London, United Kingdom",
        "id": 45759,
        "lat": 51.445371,
        "lng": -0.077581
    },
    {
        "name": "Caledonian Park",
        "address": "London, United Kingdom",
        "id": 45959,
        "lat": 51.546819,
        "lng": -0.12236
    },
    {
        "name": "Trent Park",
        "address": "Cockfosters Road, Enfield, Barnet, United Kingdom",
        "id": 46306,
        "lat": 51.662928,
        "lng": -0.139499
    },
    {
        "name": "Dalston Eastern Curve Garden",
        "address": "13 Dalston Lane, London, United Kingdom",
        "id": 46377,
        "lat": 51.546349,
        "lng": -0.074124
    },
    {
        "name": "Crystal Palace Concert Bowl",
        "address": "London, United Kingdom",
        "id": 46382,
        "lat": 51.424536,
        "lng": -0.070254
    },
    {
        "name": "Tabard Gardens",
        "address": "London, United Kingdom",
        "id": 46564,
        "lat": 51.498709,
        "lng": -0.089327
    },
    {
        "name": "TeamSport Indoor Karting North London",
        "address": "30 Nobel Road, London, United Kingdom",
        "id": 46664,
        "lat": 51.61823,
        "lng": -0.044632
    },
    {
        "name": "Uxbridge Cricket Club",
        "address": "Park Road, Uxbridge, United Kingdom",
        "id": 46670,
        "lat": 51.553177,
        "lng": -0.469549
    },
    {
        "name": "Italian Gardens",
        "address": "London, United Kingdom",
        "id": 46684,
        "lat": 51.51077,
        "lng": -0.175695
    },
    {
        "name": "Lampton Park",
        "address": "Hounslow, United Kingdom",
        "id": 46702,
        "lat": 51.474349,
        "lng": -0.372593
    },
    {
        "name": "Kidspace",
        "address": "619 Purley Way, Croydon, United Kingdom",
        "id": 46973,
        "lat": 51.35682,
        "lng": -0.115905
    },
    {
        "name": "Hazelwood Sports Club",
        "address": "Ridge Ave, London, Winchmore Hill, United Kingdom",
        "id": 47044,
        "lat": 51.637953,
        "lng": -0.087212
    },
    {
        "name": "The Church",
        "address": "Clapham Grand, 21-25 Saint John's Hill, Clapham Junction, London, United Kingdom",
        "id": 47278,
        "lat": 51.463149,
        "lng": -0.169432
    },
    {
        "name": "David Lloyd",
        "address": "Bushey Road, Raynes Park, London, London, United Kingdom",
        "id": 47477,
        "lat": 51.405658,
        "lng": -0.222816
    },
    {
        "name": "V&A Museum of Childhood",
        "address": "Cambridge Heath Road, London, United Kingdom",
        "id": 47598,
        "lat": 51.529088,
        "lng": -0.054937
    },
    {
        "name": "West Ham United Football Club",
        "address": "Boleyn Ground, Green St, London, United Kingdom",
        "id": 47785,
        "lat": 51.53208,
        "lng": 0.039225
    },
    {
        "name": "Gambado",
        "address": "Natwest Sports Ground, Copers Cope Road, Beckenham, United Kingdom",
        "id": 48283,
        "lat": 51.421142,
        "lng": -0.029976
    },
    {
        "name": "Barham Park",
        "address": "Harrow Road, Sudbury, United Kingdom",
        "id": 48406,
        "lat": 51.5526,
        "lng": -0.312338
    },
    {
        "name": "Saint Peter's Square Garden",
        "address": "London, United Kingdom",
        "id": 48862,
        "lat": 51.491926,
        "lng": -0.243998
    },
    {
        "name": "Empire Cinemas Bromley",
        "address": "242 High Street, Bromley, United Kingdom",
        "id": 49067,
        "lat": 51.406666,
        "lng": 0.012333
    },
    {
        "name": "Roxbourne Park",
        "address": "United Kingdom",
        "id": 49609,
        "lat": 51.574936,
        "lng": -0.382424
    },
    {
        "name": "The Mill House Ecology Centre",
        "address": "Windmill Road, Mitcham, United Kingdom",
        "id": 49727,
        "lat": 51.395143,
        "lng": -0.145218
    },
    {
        "name": "Wendell Park",
        "address": "London, United Kingdom",
        "id": 49827,
        "lat": 51.501626,
        "lng": -0.249489
    },
    {
        "name": "The Musical Museum",
        "address": "United Kingdom",
        "id": 50551,
        "lat": 51.487867,
        "lng": -0.29315
    },
    {
        "name": "Wandsworth Common",
        "address": "Trinity Road, London, United Kingdom",
        "id": 51405,
        "lat": 51.453165,
        "lng": -0.169008
    },
    {
        "name": "Barnet Museum",
        "address": "Barnet, United Kingdom",
        "id": 52039,
        "lat": 51.652843,
        "lng": -0.202451
    },
    {
        "name": "King's Stairs Gardens",
        "address": "London, United Kingdom",
        "id": 52820,
        "lat": 51.500064,
        "lng": -0.05724
    },
    {
        "name": "Wembley Arena",
        "address": "Arena Square, Engineers Way, London, United Kingdom",
        "id": 52823,
        "lat": 51.557795,
        "lng": -0.281935
    },
    {
        "name": "Pools On The Park",
        "address": "Old Deer Park, Twickenham Road, Richmond, United Kingdom",
        "id": 53377,
        "lat": 51.465272,
        "lng": -0.305954
    },
    {
        "name": "Gunnersbury Park",
        "address": "Pope's Lane, London, United Kingdom",
        "id": 53622,
        "lat": 51.497897,
        "lng": -0.292511
    },
    {
        "name": "Lyttelton Playing Fields",
        "address": "London, United Kingdom",
        "id": 54296,
        "lat": 51.583452,
        "lng": -0.17706
    },
    {
        "name": "TeamSport Indoor Karting",
        "address": "Tower Bridge Business Complex, 100 Clement's Road, London, United Kingdom",
        "id": 54329,
        "lat": 51.494305,
        "lng": -0.063886
    },
    {
        "name": "London Motorcycle Museum",
        "address": "Ravenor Farm, 29 Oldfield Lane, Greenford, London, United Kingdom",
        "id": 54461,
        "lat": 51.530761,
        "lng": -0.354307
    },
    {
        "name": "Chelsea FC",
        "address": "Stamford Bridge, Fulham Road, London, United Kingdom",
        "id": 54467,
        "lat": 51.481623,
        "lng": -0.190973
    },
    {
        "name": "Tooting Bec Common",
        "address": "London, United Kingdom",
        "id": 54628,
        "lat": 51.441001,
        "lng": -0.139764
    },
    {
        "name": "Bury Lodge Gardens",
        "address": "London, United Kingdom",
        "id": 54673,
        "lat": 51.633557,
        "lng": -0.075992
    },
    {
        "name": "Bruce Castle Museum",
        "address": "Lordship Lane, London, United Kingdom",
        "id": 54696,
        "lat": 51.599108,
        "lng": -0.075367
    },
    {
        "name": "Rom Skatepark",
        "address": "Upper Rainham Road, Hornchurch, United Kingdom",
        "id": 54784,
        "lat": 51.556802,
        "lng": 0.188774
    },
    {
        "name": "Wembley Stadium",
        "address": "London, United Kingdom",
        "id": 54840,
        "lat": 51.55602,
        "lng": -0.279519
    },
    {
        "name": "Central Park",
        "address": "London, United Kingdom",
        "id": 55206,
        "lat": 51.528795,
        "lng": 0.053575
    },
    {
        "name": "Old Actonians Association Sports Club",
        "address": "London, United Kingdom",
        "id": 55314,
        "lat": 51.501841,
        "lng": -0.289217
    },
    {
        "name": "Golders Hill Park Deer Enclosure",
        "address": "London, United Kingdom",
        "id": 56074,
        "lat": 51.566292,
        "lng": -0.188209
    },
    {
        "name": "Zombie Land Skatepark",
        "address": "Unit 7, Guardian Business Centre, Faringdon Avenue, Romford, United Kingdom",
        "id": 56170,
        "lat": 51.598245,
        "lng": 0.219651
    },
    {
        "name": "Wimbledon Fine Art",
        "address": "41 Church Road, London, United Kingdom",
        "id": 56271,
        "lat": 51.426358,
        "lng": -0.21694
    },
    {
        "name": "Kenton Cricket & Lawn Tennis Club Ground",
        "address": "Harrow, United Kingdom",
        "id": 56286,
        "lat": 51.589229,
        "lng": -0.305656
    },
    {
        "name": "Cineworld West India Quay",
        "address": "Hertsmere Road, West India Quay, London, United Kingdom",
        "id": 56921,
        "lat": 51.508048,
        "lng": -0.022588
    },
    {
        "name": "Queen Mary's Gardens",
        "address": "London, United Kingdom",
        "id": 57235,
        "lat": 51.527393,
        "lng": -0.153536
    },
    {
        "name": "Vue Cinema",
        "address": "West 12 Shopping Centre, Shepherd's Bush Green, London, United Kingdom",
        "id": 57481,
        "lat": 51.504008,
        "lng": -0.21887
    },
    {
        "name": "McCluskys",
        "address": "4 Bishops Hall, Thames Street, Kingston upon Thames, United Kingdom",
        "id": 57911,
        "lat": 51.410757,
        "lng": -0.307633
    },
    {
        "name": "Fassnidge Park",
        "address": "Uxbridge, United Kingdom",
        "id": 58287,
        "lat": 51.547858,
        "lng": -0.484285
    },
    {
        "name": "Langthorne Park",
        "address": "London, United Kingdom",
        "id": 58856,
        "lat": 51.556086,
        "lng": 0.004038
    },
    {
        "name": "Dana Centre",
        "address": "165 Queen's Gate, London, United Kingdom",
        "id": 59208,
        "lat": 51.497126,
        "lng": -0.179257
    },
    {
        "name": "Lawns Park",
        "address": "Romford, United Kingdom",
        "id": 59289,
        "lat": 51.596478,
        "lng": 0.169502
    },
    {
        "name": "Saint James Park",
        "address": "London, United Kingdom",
        "id": 59601,
        "lat": 51.577122,
        "lng": -0.037855
    },
    {
        "name": "Vibe Gallery",
        "address": "100 Clement's Road, London, United Kingdom",
        "id": 61722,
        "lat": 51.494002,
        "lng": -0.061433
    },
    {
        "name": "White Cube",
        "address": "144-152 Bermondsey Street, London, United Kingdom",
        "id": 61837,
        "lat": 51.49947,
        "lng": -0.082266
    },
    {
        "name": "Ealing Lawn Tennis Club",
        "address": "Daniel Road (off Creffield Road), Ealing, London, United Kingdom",
        "id": 63187,
        "lat": 51.512643,
        "lng": -0.287714
    },
    {
        "name": "Chelsea Gardener",
        "address": "125 Sydney Street, London, United Kingdom",
        "id": 63794,
        "lat": 51.488333,
        "lng": -0.169549
    },
    {
        "name": "Greenwich Heritage Centre",
        "address": "Artillery Square, Royal Arsenal, London, United Kingdom",
        "id": 64115,
        "lat": 51.49439,
        "lng": 0.069192
    },
    {
        "name": "Ashburton Playing Fields",
        "address": "Croydon, United Kingdom",
        "id": 64352,
        "lat": 51.384328,
        "lng": -0.054456
    },
    {
        "name": "Art Rebellion",
        "address": "171 Brighton Road, Town Centre, Coulsdon, United Kingdom",
        "id": 65048,
        "lat": 51.320246,
        "lng": -0.138936
    },
    {
        "name": "Nunhead Green",
        "address": "London, United Kingdom",
        "id": 65480,
        "lat": 51.465322,
        "lng": -0.058673
    },
    {
        "name": "Inwood Park",
        "address": "Inwood Road, Hounslow, United Kingdom",
        "id": 65676,
        "lat": 51.467508,
        "lng": -0.355172
    },
    {
        "name": "Arsenal Museum",
        "address": "75 Drayton Park, London, United Kingdom",
        "id": 67828,
        "lat": 51.554514,
        "lng": -0.10749
    },
    {
        "name": "Odeon Marble Arch",
        "address": "10 Edgware Road, Marble Arch, London, United Kingdom",
        "id": 68349,
        "lat": 51.513376,
        "lng": -0.159868
    },
    {
        "name": "Bramley Sports Ground",
        "address": "London, United Kingdom",
        "id": 69127,
        "lat": 51.64343,
        "lng": -0.143452
    },
    {
        "name": "The Hippodrome Casino London",
        "address": "Cranbourn Street, Leicester Square, London, United Kingdom",
        "id": 69399,
        "lat": 51.511407,
        "lng": -0.128646
    },
    {
        "name": "Forest Hill Pools",
        "address": "Dartmouth Road, London, United Kingdom",
        "id": 69698,
        "lat": 51.435484,
        "lng": -0.056451
    },
    {
        "name": "Cineworld at The O2",
        "address": "Peninsular Square, London, United Kingdom",
        "id": 70691,
        "lat": 51.502902,
        "lng": 0.003271
    },
    {
        "name": "Virgin Active Chiswick Park",
        "address": "566 Chiswick High Road, London, United Kingdom",
        "id": 71103,
        "lat": 51.494894,
        "lng": -0.275688
    },
    {
        "name": "Ravenor Park",
        "address": "United Kingdom",
        "id": 71545,
        "lat": 51.530566,
        "lng": -0.355897
    },
    {
        "name": "Archway Leisure Centre",
        "address": "1 MacDonald Road, London, United Kingdom",
        "id": 72853,
        "lat": 51.565456,
        "lng": -0.136059
    },
    {
        "name": "Dome Tufnell Park",
        "address": "2A Dartmouth Park Hill, London, United Kingdom",
        "id": 73763,
        "lat": 51.557407,
        "lng": -0.138675
    },
    {
        "name": "Gymbox Bank",
        "address": "71 Lombard Street, London, United Kingdom",
        "id": 74206,
        "lat": 51.512898,
        "lng": -0.087712
    },
    {
        "name": "Royal Air Force Museum",
        "address": "Grahame Park Way, London, United Kingdom",
        "id": 74784,
        "lat": 51.598695,
        "lng": -0.238396
    },
    {
        "name": "Mile End Park",
        "address": "190 Burdett Road, London, United Kingdom",
        "id": 75871,
        "lat": 51.519332,
        "lng": -0.033968
    },
    {
        "name": "Southgate Leisure Centre",
        "address": "Winchmore Hill Road, London, United Kingdom",
        "id": 76764,
        "lat": 51.634359,
        "lng": -0.124605
    },
    {
        "name": "Danson Park",
        "address": "United Kingdom",
        "id": 76779,
        "lat": 51.455769,
        "lng": 0.122606
    },
    {
        "name": "Westminster Abbey Precincts - Dean's Yard",
        "address": "London, United Kingdom",
        "id": 77547,
        "lat": 51.498612,
        "lng": -0.12897
    },
    {
        "name": "Crystal Clubs",
        "address": "1 Poppin Business Centre, Southway, Wembley, United Kingdom",
        "id": 78130,
        "lat": 51.555111,
        "lng": -0.275513
    },
    {
        "name": "Tate Britain",
        "address": "Millbank, London, United Kingdom",
        "id": 79803,
        "lat": 51.491052,
        "lng": -0.12711
    },
    {
        "name": "Emirates Aviation Experience",
        "address": "Edmund Halley Way, London, United Kingdom",
        "id": 79994,
        "lat": 51.499443,
        "lng": 0.00806
    },
    {
        "name": "The Art Gallery",
        "address": "103 Victoria Road, Ruislip Manor, United Kingdom",
        "id": 80136,
        "lat": 51.570989,
        "lng": -0.411279
    },
    {
        "name": "Eastcote House Grounds",
        "address": "United Kingdom",
        "id": 80293,
        "lat": 51.586986,
        "lng": -0.403235
    },
    {
        "name": "Gallions Hill",
        "address": "London, United Kingdom",
        "id": 81269,
        "lat": 51.502136,
        "lng": 0.09136
    },
    {
        "name": "The Photographers' Gallery",
        "address": "16-18 Ramillies Street, London, United Kingdom",
        "id": 35550,
        "lat": 51.514965,
        "lng": -0.139151
    },
    {
        "name": "Clapham Picturehouse",
        "address": "76 Venn Street, London, United Kingdom",
        "id": 35998,
        "lat": 51.462556,
        "lng": -0.138132
    },
    {
        "name": "Greenwich Picturehouse",
        "address": "180 Greenwich High Road, London, United Kingdom",
        "id": 36554,
        "lat": 51.479305,
        "lng": -0.009975
    },
    {
        "name": "BFI Southbank",
        "address": "Belvedere Road, South Bank, London, United Kingdom",
        "id": 39853,
        "lat": 51.50705,
        "lng": -0.11551
    },
    {
        "name": "Frithwood Park",
        "address": "United Kingdom",
        "id": 245223,
        "lat": 51.614375,
        "lng": -0.41879
    },
    {
        "name": "Barnet Football Club",
        "address": "Barnet Lane, Barnet - London, United Kingdom",
        "id": 245278,
        "lat": 51.646229,
        "lng": -0.191707
    },
    {
        "name": "Oak Hill Park",
        "address": "Barnet, United Kingdom",
        "id": 245311,
        "lat": 51.638426,
        "lng": -0.155137
    },
    {
        "name": "Grange Park",
        "address": "London, United Kingdom",
        "id": 245314,
        "lat": 51.644042,
        "lng": -0.098799
    },
    {
        "name": "Cockfosters Bowling Club",
        "address": "Barnet, United Kingdom",
        "id": 245345,
        "lat": 51.653279,
        "lng": -0.152661
    },
    {
        "name": "www.artzetc.com",
        "address": "1A Selvage Lane, London, United Kingdom",
        "id": 245354,
        "lat": 51.620994,
        "lng": -0.255547
    },
    {
        "name": "Zumba Northwood",
        "address": "Orion Court, 255 Hale Lane, Edgware, United Kingdom",
        "id": 245355,
        "lat": 51.618319,
        "lng": -0.270568
    },
    {
        "name": "Barnet Burnt Oak Leisure Centre",
        "address": "Watling Avenue, Edgware, United Kingdom",
        "id": 245386,
        "lat": 51.605038,
        "lng": -0.255346
    },
    {
        "name": "Sunny Hill Park",
        "address": "London, United Kingdom",
        "id": 245396,
        "lat": 51.596444,
        "lng": -0.229524
    },
    {
        "name": "Mill Hill Rugby Club",
        "address": "London, United Kingdom",
        "id": 245401,
        "lat": 51.604413,
        "lng": -0.230027
    },
    {
        "name": "Beauty by Olivia (GI Salons)",
        "address": "6 Hendon Lane, London, United Kingdom",
        "id": 245402,
        "lat": 51.599851,
        "lng": -0.196228
    },
    {
        "name": "Secret Paradise Spa Ltd",
        "address": "83 Church Road, London, United Kingdom",
        "id": 245404,
        "lat": 51.589747,
        "lng": -0.222461
    },
    {
        "name": "Copthall Playing Fields",
        "address": "London, United Kingdom",
        "id": 245406,
        "lat": 51.601406,
        "lng": -0.227688
    },
    {
        "name": "My Gravity Fitness & Dance",
        "address": "81 Church Road, London, United Kingdom",
        "id": 245416,
        "lat": 51.589769,
        "lng": -0.222626
    },
    {
        "name": "Park View Health Club",
        "address": "189-191 Ballards Lane, London, United Kingdom",
        "id": 245417,
        "lat": 51.606049,
        "lng": -0.187175
    },
    {
        "name": "The Beauty Room",
        "address": "708 High Road, London, North Finchley, United Kingdom",
        "id": 245422,
        "lat": 51.613479,
        "lng": -0.175876
    },
    {
        "name": "Air Powerplate and fitness studio",
        "address": "75A Russell Lane, London, Whetstone, United Kingdom",
        "id": 245423,
        "lat": 51.62976,
        "lng": -0.157244
    },
    {
        "name": "Grovelands Park",
        "address": "London, United Kingdom",
        "id": 245441,
        "lat": 51.62987,
        "lng": -0.117006
    },
    {
        "name": "theLOCALgallery",
        "address": "14 Avenue Mews, London, United Kingdom",
        "id": 245479,
        "lat": 51.590715,
        "lng": -0.144017
    },
    {
        "name": "Alexandra Park",
        "address": "London, United Kingdom",
        "id": 245506,
        "lat": 51.59515,
        "lng": -0.125152
    },
    {
        "name": "Active4Less Uxbridge",
        "address": "233 High St, Uxbridge, United Kingdom",
        "id": 245538,
        "lat": 51.544126,
        "lng": -0.474378
    },
    {
        "name": "Battle of Britain Bunker",
        "address": "Uxbridge, United Kingdom",
        "id": 245543,
        "lat": 51.540473,
        "lng": -0.464655
    },
    {
        "name": "Kingsend Dental",
        "address": "34 Kingsend, Ruislip, United Kingdom",
        "id": 245551,
        "lat": 51.572315,
        "lng": -0.426701
    },
    {
        "name": "True Beauty Aesthetics",
        "address": "3 Carlton Ave Parade, Preston Road, Wembley, United Kingdom",
        "id": 245605,
        "lat": 51.569787,
        "lng": -0.294399
    },
    {
        "name": "Vale Farm Sports Ground",
        "address": "Wembley, United Kingdom",
        "id": 245607,
        "lat": 51.561702,
        "lng": -0.313207
    },
    {
        "name": "Northolt & Greenford Country Park",
        "address": "United Kingdom",
        "id": 245621,
        "lat": 51.54116,
        "lng": -0.371347
    },
    {
        "name": "alexander technique",
        "address": "6 Ingram Way, Greenford, United Kingdom",
        "id": 245624,
        "lat": 51.53989,
        "lng": -0.347797
    },
    {
        "name": "Virgin Active - Stockley Park",
        "address": "The Arena Club, Stockley Park East, Uxbridge, United Kingdom",
        "id": 245651,
        "lat": 51.512385,
        "lng": -0.444371
    },
    {
        "name": "Brookside",
        "address": "United Kingdom",
        "id": 245656,
        "lat": 51.520984,
        "lng": -0.393372
    },
    {
        "name": "Party Knightz",
        "address": "Mulberry Parade, West Drayton, United Kingdom",
        "id": 245664,
        "lat": 51.504576,
        "lng": -0.457615
    },
    {
        "name": "Southall Park",
        "address": "Boyd Avenue, Southall, United Kingdom",
        "id": 245694,
        "lat": 51.509882,
        "lng": -0.372052
    },
    {
        "name": "Perivale Park",
        "address": "United Kingdom",
        "id": 245695,
        "lat": 51.527969,
        "lng": -0.346338
    },
    {
        "name": "PM Gallery & House",
        "address": "Walpole Park, Mattock Lane, London, United Kingdom",
        "id": 245710,
        "lat": 51.511019,
        "lng": -0.307122
    },
    {
        "name": "Virgin Active - Ealing",
        "address": "5th Floor, Ealing Broadway Centre, London, United Kingdom",
        "id": 245714,
        "lat": 51.512153,
        "lng": -0.302852
    },
    {
        "name": "The Gym Ealing",
        "address": "96-122 Uxbridge Road, London, United Kingdom",
        "id": 245715,
        "lat": 51.511485,
        "lng": -0.316286
    },
    {
        "name": "Soho Square",
        "address": "London, United Kingdom",
        "id": 35195,
        "lat": 51.51532,
        "lng": -0.132144
    },
    {
        "name": "National Maritime Museum",
        "address": "Romney Road, London, United Kingdom",
        "id": 35751,
        "lat": 51.480972,
        "lng": -0.005279
    },
    {
        "name": "Everyman Screen on the Green",
        "address": "83 Upper Street, London, United Kingdom",
        "id": 36022,
        "lat": 51.536814,
        "lng": -0.103542
    },
    {
        "name": "Boujis",
        "address": "43 Thurloe Street, London, United Kingdom",
        "id": 36147,
        "lat": 51.494442,
        "lng": -0.174405
    },
    {
        "name": "Acton Green Common",
        "address": "London, United Kingdom",
        "id": 41092,
        "lat": 51.49527,
        "lng": -0.261692
    },
    {
        "name": "Saint Paul's Churchyard",
        "address": "London, United Kingdom",
        "id": 54972,
        "lat": 51.514223,
        "lng": -0.097277
    },
    {
        "name": "Horsenden Hill",
        "address": "United Kingdom",
        "id": 67909,
        "lat": 51.54183,
        "lng": -0.325819
    },
    {
        "name": "The Garage",
        "address": "20-22 Highbury Crescent, London, United Kingdom",
        "id": 35512,
        "lat": 51.546748,
        "lng": -0.103891
    },
    {
        "name": "Natural History Museum",
        "address": "Cromwell Road, London, United Kingdom",
        "id": 35538,
        "lat": 51.496715,
        "lng": -0.176367
    },
    {
        "name": "Kensington Palace",
        "address": "Kensington Gardens, London, United Kingdom",
        "id": 35557,
        "lat": 51.505152,
        "lng": -0.187662
    },
    {
        "name": "Horniman Museum & Gardens",
        "address": "100 London Road, London, United Kingdom",
        "id": 35754,
        "lat": 51.441304,
        "lng": -0.060596
    },
    {
        "name": "Tate Modern",
        "address": "Bankside, London, United Kingdom",
        "id": 35773,
        "lat": 51.507722,
        "lng": -0.099195
    },
    {
        "name": "Saatchi Gallery",
        "address": "Duke Of York's HQ, King's Road, London, United Kingdom",
        "id": 37076,
        "lat": 51.490697,
        "lng": -0.158716
    },
    {
        "name": "Victoria and Albert Museum",
        "address": "Cromwell Road, London, United Kingdom",
        "id": 37159,
        "lat": 51.496023,
        "lng": -0.171967
    },
    {
        "name": "Primrose Hill",
        "address": "Primrose Hill Road, London, United Kingdom",
        "id": 38254,
        "lat": 51.539151,
        "lng": -0.161127
    },
    {
        "name": "The Queen's Gallery Buckingham Palace",
        "address": "Buckingham Palace, London, United Kingdom",
        "id": 35079,
        "lat": 51.499829,
        "lng": -0.14247
    },
    {
        "name": "Ministry of Sound",
        "address": "103 Gaunt Street, London, United Kingdom",
        "id": 35223,
        "lat": 51.497714,
        "lng": -0.099798
    },
    {
        "name": "The Roof Gardens",
        "address": "99 Kensington High Street, London, United Kingdom",
        "id": 35467,
        "lat": 51.501062,
        "lng": -0.191433
    },
    {
        "name": "National Portrait Gallery",
        "address": "St. Martin's Place, London, United Kingdom",
        "id": 35536,
        "lat": 51.509424,
        "lng": -0.128122
    },
    {
        "name": "London Transport Museum",
        "address": "Covent Garden Piazza, London, United Kingdom",
        "id": 35541,
        "lat": 51.512038,
        "lng": -0.121487
    },
    {
        "name": "St James's Park",
        "address": "The Storeyard, Horse Guards Road, St James's Park, London, United Kingdom",
        "id": 35545,
        "lat": 51.502448,
        "lng": -0.134289
    },
    {
        "name": "Royal Botanic Gardens, Kew",
        "address": "Brentford Gate, Kew, Richmond, London, United Kingdom",
        "id": 35548,
        "lat": 51.477523,
        "lng": -0.296947
    },
    {
        "name": "Royal Observatory Greenwich",
        "address": "Blackheath Avenue, Greenwich, United Kingdom",
        "id": 35590,
        "lat": 51.476878,
        "lng": -0.00033
    },
    {
        "name": "Museum of London",
        "address": "150 London Wall, London, United Kingdom",
        "id": 35749,
        "lat": 51.517618,
        "lng": -0.096778
    },
    {
        "name": "The British Museum",
        "address": "Great Russell Street, London, United Kingdom",
        "id": 35750,
        "lat": 51.518856,
        "lng": -0.126337
    },
    {
        "name": "Royal Academy of Arts",
        "address": "Burlington House, Piccadilly, London, United Kingdom",
        "id": 35767,
        "lat": 51.509261,
        "lng": -0.139839
    },
    {
        "name": "Imperial War Museum",
        "address": "Lambeth Road, London, United Kingdom",
        "id": 35775,
        "lat": 51.496234,
        "lng": -0.108597
    },
    {
        "name": "Museum of London Docklands",
        "address": "1 Warehouse, West India Quay, London, United Kingdom",
        "id": 35776,
        "lat": 51.507553,
        "lng": -0.024526
    },
    {
        "name": "Southbank Centre",
        "address": "Belvedere Road, London, United Kingdom",
        "id": 35974,
        "lat": 51.505652,
        "lng": -0.116439
    },
    {
        "name": "Ritzy Cinema",
        "address": "Brixton Oval, Coldharbour Lane, London, United Kingdom",
        "id": 36001,
        "lat": 51.461207,
        "lng": -0.115176
    },
    {
        "name": "Curzon Soho",
        "address": "99 Shaftesbury Avenue, London, United Kingdom",
        "id": 36165,
        "lat": 51.512622,
        "lng": -0.130558
    },
    {
        "name": "Cineworld Wandsworth",
        "address": "Southside Shopping Centre, Wandsworth High Street, London, United Kingdom",
        "id": 36964,
        "lat": 51.454722,
        "lng": -0.192863
    },
    {
        "name": "Brockwell Park",
        "address": "Dulwich Road, London, United Kingdom",
        "id": 37352,
        "lat": 51.451045,
        "lng": -0.104585
    },
    {
        "name": "Wembley Stadium Parking",
        "address": "Wembley Stadium, Wembley, United Kingdom",
        "id": 37676,
        "lat": 51.5567,
        "lng": -0.279665
    },
    {
        "name": "BFI IMAX",
        "address": "1 Charlie Chaplin Walk, London, United Kingdom",
        "id": 37923,
        "lat": 51.504859,
        "lng": -0.11366
    },
    {
        "name": "Greenwich Park",
        "address": "London, United Kingdom",
        "id": 42568,
        "lat": 51.47691,
        "lng": 0.001464
    },
    {
        "name": "Banya No.1",
        "address": "17 Micawber Street, London, United Kingdom",
        "id": 245207,
        "lat": 51.530142,
        "lng": -0.094381
    },
    {
        "name": "Paramount Health & Fitness",
        "address": "316-322 Green Lanes, London, United Kingdom",
        "id": 245442,
        "lat": 51.619378,
        "lng": -0.106987
    },
    {
        "name": "North London Boxing Club",
        "address": "Wood Green, Unit 2A, The Mews, Truro Road, London, United Kingdom",
        "id": 245510,
        "lat": 51.604688,
        "lng": -0.112518
    },
    {
        "name": "Perfect Image Consultants",
        "address": "2 Manor Rd, Ruislip, United Kingdom",
        "id": 245536,
        "lat": 51.575943,
        "lng": -0.428731
    },
    {
        "name": "Usurp Art Gallery & Studios",
        "address": "140 Vaughan Road, London, United Kingdom",
        "id": 245579,
        "lat": 51.579018,
        "lng": -0.349347
    },
    {
        "name": "Saks Hair and Beauty Heston",
        "address": "David Lloyd Leisure Club, Southall Lane, Heston / Hounslow, United Kingdom",
        "id": 245650,
        "lat": 51.494276,
        "lng": -0.401483
    },
    {
        "name": "Panthers Health Club",
        "address": "2 Point West Building, Packet Boat Lane, Cowley, Uxbridge, United Kingdom",
        "id": 245653,
        "lat": 51.519806,
        "lng": -0.483763
    },
    {
        "name": "Gurnell Leisure Centre",
        "address": "Ruislip Road East, London, United Kingdom",
        "id": 245713,
        "lat": 51.52898,
        "lng": -0.3311
    },
    {
        "name": "Osterley Park and House",
        "address": "Jersey Road, Isleworth, United Kingdom",
        "id": 245733,
        "lat": 51.489537,
        "lng": -0.345492
    },
    {
        "name": "Clock Gallery",
        "address": "58 Saint Mary's Place, London, United Kingdom",
        "id": 245754,
        "lat": 51.505201,
        "lng": -0.305612
    },
    {
        "name": "Roe Green Park",
        "address": "Kingsbury Road, London, United Kingdom",
        "id": 245785,
        "lat": 51.586355,
        "lng": -0.270503
    },
    {
        "name": "Hendon Park",
        "address": "Queen's Road, Hendon, United Kingdom",
        "id": 245801,
        "lat": 51.583637,
        "lng": -0.221767
    },
    {
        "name": "Bannatyne's Health Club Maida Vale",
        "address": "4 Greville Road, London, Maida Vale, United Kingdom",
        "id": 245841,
        "lat": 51.536105,
        "lng": -0.190883
    },
    {
        "name": "Vervena Laser & Beauty Clinic",
        "address": "126 West End Lane, London, United Kingdom",
        "id": 245848,
        "lat": 51.547265,
        "lng": -0.190948
    },
    {
        "name": "Clissold Park",
        "address": "Green Lanes, London, United Kingdom",
        "id": 245899,
        "lat": 51.562132,
        "lng": -0.090895
    },
    {
        "name": "The Factory Gym and Dance Center",
        "address": "407 Hornsey Road, London, United Kingdom",
        "id": 245900,
        "lat": 51.566226,
        "lng": -0.121389
    },
    {
        "name": "Total Boxer",
        "address": "46 Tottenham Lane, London, United Kingdom",
        "id": 245905,
        "lat": 51.586415,
        "lng": -0.112414
    },
    {
        "name": "Everyman Hampstead",
        "address": "5 Holly Bush Vale, London, United Kingdom",
        "id": 245941,
        "lat": 51.55644,
        "lng": -0.17903
    },
    {
        "name": "Hampstead Heath",
        "address": "Gordon House Road, London, United Kingdom",
        "id": 245954,
        "lat": 51.556253,
        "lng": -0.151095
    },
    {
        "name": "Everyman Cinemas",
        "address": "203 Haverstock Hill, Belsize Park, London, United Kingdom",
        "id": 245966,
        "lat": 51.550819,
        "lng": -0.165758
    },
    {
        "name": "Rio's Naturist Club",
        "address": "239-241 Kentish Town Road, London, United Kingdom",
        "id": 245984,
        "lat": 51.548089,
        "lng": -0.1414
    },
    {
        "name": "Londinium Gardens",
        "address": "97 College Place, London, United Kingdom",
        "id": 245994,
        "lat": 51.538362,
        "lng": -0.136276
    },
    {
        "name": "Islington Arts Factory",
        "address": "2 Parkhurst Road, London, United Kingdom",
        "id": 246028,
        "lat": 51.55398,
        "lng": -0.123146
    },
    {
        "name": "PureGym London Holloway Road",
        "address": "Holloway Road, Collingwood Business Centre, London, United Kingdom",
        "id": 246031,
        "lat": 51.559647,
        "lng": -0.123478
    },
    {
        "name": "Virgin Active",
        "address": "36 Bromyard Avenue, London, United Kingdom",
        "id": 246108,
        "lat": 51.508751,
        "lng": -0.252381
    },
    {
        "name": "Portobello Green Fitness Club",
        "address": "3-5 Thorpe Close, London, United Kingdom",
        "id": 246160,
        "lat": 51.518381,
        "lng": -0.20824
    },
    {
        "name": "hydrohealing",
        "address": "216a Kensington Park Road, Notting Hill, London, United Kingdom",
        "id": 246163,
        "lat": 51.51633,
        "lng": -0.206199
    },
    {
        "name": "Spa & Massage",
        "address": "123 Queensway, London, United Kingdom",
        "id": 246176,
        "lat": 51.513356,
        "lng": -0.187861
    },
    {
        "name": "Ravenscourt Park",
        "address": "Ravenscourt Avenue, London, United Kingdom",
        "id": 246232,
        "lat": 51.494312,
        "lng": -0.237898
    },
    {
        "name": "Queen's Park Rangers Football Club",
        "address": "Loftus Road Stadium, South Africa Road, London, United Kingdom",
        "id": 246298,
        "lat": 51.509622,
        "lng": -0.232914
    },
    {
        "name": "The Coronet Cinema Notting Hill Gate",
        "address": "103 Notting Hill Gate, London, United Kingdom",
        "id": 246318,
        "lat": 51.508582,
        "lng": -0.197997
    },
    {
        "name": "Premier Laser Clinic",
        "address": "2 Wellington Terrace, London, United Kingdom",
        "id": 246320,
        "lat": 51.50989,
        "lng": -0.192346
    },
    {
        "name": "Fitness First",
        "address": "26-28 Hammersmith Grove, London, United Kingdom",
        "id": 246361,
        "lat": 51.494747,
        "lng": -0.226054
    },
    {
        "name": "Earls Court Exhibition Centre",
        "address": "Warwick Road, London, United Kingdom",
        "id": 246374,
        "lat": 51.490086,
        "lng": -0.19591
    },
    {
        "name": "Odeon Cinema Kensington",
        "address": "Kensington High Street, London, United Kingdom",
        "id": 246376,
        "lat": 51.498524,
        "lng": -0.199148
    },
    {
        "name": "Adamina Day Spa",
        "address": "276-280 Kensington High Street, London, United Kingdom",
        "id": 246378,
        "lat": 51.498678,
        "lng": -0.200469
    },
    {
        "name": "Casa Spa",
        "address": "439 Edgware Road, London, United Kingdom",
        "id": 246464,
        "lat": 51.524256,
        "lng": -0.17644
    },
    {
        "name": "Spaone Thai Relaxation Spa",
        "address": "Holiday Villa Hotel, 35-37 Leinster Gardens, London, United Kingdom",
        "id": 246466,
        "lat": 51.513509,
        "lng": -0.18384
    },
    {
        "name": "Climb London West 1",
        "address": "Seymour Leisure Centre, Seymour Place, London, United Kingdom",
        "id": 246467,
        "lat": 51.518663,
        "lng": -0.162953
    },
    {
        "name": "Breathe Fitness - Personal Trainer London",
        "address": "13 Saint George's Mews, London, United Kingdom",
        "id": 246471,
        "lat": 51.520049,
        "lng": -0.16213
    },
    {
        "name": "Egoist Body Studios",
        "address": "Club Fitzrovia, Goodge Place, London, United Kingdom",
        "id": 246536,
        "lat": 51.52335,
        "lng": -0.139818
    },
    {
        "name": "Immaqulate Beauty",
        "address": "28 Buckingham Palace Road, Victoria. SW1W 0RE, United Kingdom",
        "id": 246563,
        "lat": 51.515459,
        "lng": -0.150642
    },
    {
        "name": "100 Club",
        "address": "100 Oxford Street, London, United Kingdom",
        "id": 246590,
        "lat": 51.516077,
        "lng": -0.135381
    },
    {
        "name": "Pollock's Toy Museum",
        "address": "1 Scala Street, United Kingdom",
        "id": 246591,
        "lat": 51.520295,
        "lng": -0.135276
    },
    {
        "name": "SweatBox Soho",
        "address": "Ramillies House, 1-2 Ramillies Street, London, United Kingdom",
        "id": 246593,
        "lat": 51.515039,
        "lng": -0.138844
    },
    {
        "name": "angel therapy rooms",
        "address": "16b Essex Road, Islington, London, United Kingdom",
        "id": 246733,
        "lat": 51.536569,
        "lng": -0.101376
    },
    {
        "name": "Kimantra Urban Spa",
        "address": "5 Camden Passage, London, United Kingdom",
        "id": 246735,
        "lat": 51.534657,
        "lng": -0.104284
    },
    {
        "name": "GIGI London Medical Aesthetics",
        "address": "10-12 Gaskin Street, London, United Kingdom",
        "id": 246738,
        "lat": 51.537522,
        "lng": -0.102174
    },
    {
        "name": "Fitness First Angel",
        "address": "361-373 City Road, London, United Kingdom",
        "id": 246754,
        "lat": 51.531359,
        "lng": -0.10332
    },
    {
        "name": "Pho Thai - Traditional Thai Therapy",
        "address": "Green Man Tower, 332A Goswell Road, London, United Kingdom",
        "id": 246755,
        "lat": 51.530266,
        "lng": -0.103011
    },
    {
        "name": "School of Oriental and African Studies",
        "address": "Thornhaugh Street, Russell Square, London, United Kingdom",
        "id": 246787,
        "lat": 51.52235,
        "lng": -0.129259
    },
    {
        "name": "The Petrie Museum of Egyptian Archaeology",
        "address": "Malet Place, Camden, London, United Kingdom",
        "id": 246789,
        "lat": 51.523586,
        "lng": -0.132992
    },
    {
        "name": "Charles Dickens Museum",
        "address": "48 Doughty Street, London, United Kingdom",
        "id": 246803,
        "lat": 51.523589,
        "lng": -0.116303
    },
    {
        "name": "Oasis Sports Centre",
        "address": "32 Endell Street, London, United Kingdom",
        "id": 246825,
        "lat": 51.51566,
        "lng": -0.125901
    },
    {
        "name": "Curwen & New Academy Gallery",
        "address": "34 Windmill Street, London, United Kingdom",
        "id": 246842,
        "lat": 51.518868,
        "lng": -0.133971
    },
    {
        "name": "Sir John Soane's Museum",
        "address": "13 Lincoln's Inn Fields, London, United Kingdom",
        "id": 246884,
        "lat": 51.516998,
        "lng": -0.117402
    },
    {
        "name": "Gymbox",
        "address": "100 High Holborn, London, United Kingdom",
        "id": 246887,
        "lat": 51.517834,
        "lng": -0.118801
    },
    {
        "name": "Hunterian Museum",
        "address": "35-43 Lincoln's Inn Fields, London, United Kingdom",
        "id": 246890,
        "lat": 51.515284,
        "lng": -0.1159
    },
    {
        "name": "Parkland Natural Health Clinic",
        "address": "239 High Holborn, London, United Kingdom",
        "id": 246892,
        "lat": 51.517555,
        "lng": -0.118992
    },
    {
        "name": "Virgin Active - Moorgate",
        "address": "33 Bunhill Row, London, United Kingdom",
        "id": 246948,
        "lat": 51.522878,
        "lng": -0.089631
    },
    {
        "name": "Virgin Active - Barbican",
        "address": "97 Aldersgate Street, London, United Kingdom",
        "id": 246978,
        "lat": 51.520234,
        "lng": -0.097206
    },
    {
        "name": "Weston William Gallery Ltd",
        "address": "7 Royal Academy of Arts, West Yard Entrance, London, United Kingdom",
        "id": 247230,
        "lat": 51.509004,
        "lng": -0.141637
    },
    {
        "name": "Permanent Makeup by Dunja",
        "address": "38 Knightsbridge, London, United Kingdom",
        "id": 247277,
        "lat": 51.502386,
        "lng": -0.157118
    },
    {
        "name": "The Mayfair Club",
        "address": "49-50 Dover Street, London, United Kingdom",
        "id": 247294,
        "lat": 51.507592,
        "lng": -0.14161
    },
    {
        "name": "New Churchill's Club",
        "address": "Colette House, 52-55 Piccadilly, London, United Kingdom",
        "id": 247296,
        "lat": 51.508345,
        "lng": -0.139673
    },
    {
        "name": "Brancolini Grimaldi",
        "address": "43-44 Albemarle Street, London, United Kingdom",
        "id": 247303,
        "lat": 51.50834,
        "lng": -0.141409
    },
    {
        "name": "Low Members Club",
        "address": "91 Jermyn Street, London, United Kingdom",
        "id": 247319,
        "lat": 51.508226,
        "lng": -0.137118
    },
    {
        "name": "The Ritz Club",
        "address": "150 Piccadilly, London, United Kingdom",
        "id": 247344,
        "lat": 51.507314,
        "lng": -0.141601
    },
    {
        "name": "White Cube",
        "address": "25-26 Masons Yard, London, United Kingdom",
        "id": 247348,
        "lat": 51.507383,
        "lng": -0.13767
    },
    {
        "name": "Malcolm Fairley Ltd",
        "address": "40 Bury Street, London, United Kingdom",
        "id": 247374,
        "lat": 51.506306,
        "lng": -0.138173
    },
    {
        "name": "Science Museum IMAX",
        "address": "Exhibition Road, South Kensington, London, United Kingdom",
        "id": 247405,
        "lat": 51.497222,
        "lng": -0.177656
    },
    {
        "name": "Aquilla",
        "address": "The Rembrandt Hotel, Thurloe Place, London, United Kingdom",
        "id": 247420,
        "lat": 51.496134,
        "lng": -0.170294
    },
    {
        "name": "clinicbe (Dr Barbara Kubicka)",
        "address": "32 Clabon Mews, London, United Kingdom",
        "id": 247429,
        "lat": 51.495396,
        "lng": -0.161849
    },
    {
        "name": "LA Fitness - South Kensington",
        "address": "63/81 Pelham Street, London, United Kingdom",
        "id": 247463,
        "lat": 51.493807,
        "lng": -0.170708
    },
    {
        "name": "Medici Gallery",
        "address": "26 Thurloe Street, London, United Kingdom",
        "id": 247469,
        "lat": 51.49438,
        "lng": -0.173652
    },
    {
        "name": "The Royal Mews",
        "address": "Buckingham Palace, London, United Kingdom",
        "id": 247491,
        "lat": 51.498652,
        "lng": -0.144196
    },
    {
        "name": "Queen Mother Sports Centre",
        "address": "223 Vauxhall Bridge Road, London, United Kingdom",
        "id": 247494,
        "lat": 51.49375,
        "lng": -0.140461
    },
    {
        "name": "Light Centre Belgravia",
        "address": "7-9 Eccleston Street, London, United Kingdom",
        "id": 247496,
        "lat": 51.494379,
        "lng": -0.147854
    },
    {
        "name": "Plus One Gallery",
        "address": "89-91 Pimlico Road, London, United Kingdom",
        "id": 247501,
        "lat": 51.490095,
        "lng": -0.154406
    },
    {
        "name": "Mauger Modern Art",
        "address": "81 Rochester Row, London, United Kingdom",
        "id": 247511,
        "lat": 51.493237,
        "lng": -0.137474
    },
    {
        "name": "SHANGRI-LA Chinese Health Care Clinic",
        "address": "68 Wilton Rd, London, United Kingdom",
        "id": 247512,
        "lat": 51.493226,
        "lng": -0.140766
    },
    {
        "name": "White Room Fitness",
        "address": "54B Ebury Street, London, United Kingdom",
        "id": 247518,
        "lat": 51.49513,
        "lng": -0.148316
    },
    {
        "name": "Madame Jojo's",
        "address": "8-10 Brewer Street, London, United Kingdom",
        "id": 247561,
        "lat": 51.512399,
        "lng": -0.133866
    },
    {
        "name": "Las Vagas",
        "address": "89-91 Wardour Street, London, United Kingdom",
        "id": 247564,
        "lat": 51.512696,
        "lng": -0.133661
    },
    {
        "name": "The Pleasure Lounge",
        "address": "52 Rupert Street, London, United Kingdom",
        "id": 247569,
        "lat": 51.512218,
        "lng": -0.133522
    },
    {
        "name": "Nuffield Health Fitness & Wellbeing Centre",
        "address": "9 Endell Street, London, United Kingdom",
        "id": 247585,
        "lat": 51.514104,
        "lng": -0.124082
    },
    {
        "name": "Thai Square Spa",
        "address": "Covent Garden, 25 Shelton Street, London, United Kingdom",
        "id": 247586,
        "lat": 51.513469,
        "lng": -0.126214
    },
    {
        "name": "Yotopia - Yoga Studio London",
        "address": "13 Mercer Street, London, Covent Garden, London, United Kingdom",
        "id": 247589,
        "lat": 51.512688,
        "lng": -0.126234
    },
    {
        "name": "Maria Merca's Glass Art",
        "address": "Covent Garden Apple Market, Covent Garden, London, United Kingdom",
        "id": 247594,
        "lat": 51.512259,
        "lng": -0.123134
    },
    {
        "name": "The Casino At The Empire",
        "address": "5-6 Leicester Square, London, United Kingdom",
        "id": 247602,
        "lat": 51.510838,
        "lng": -0.130348
    },
    {
        "name": "ODEON Panton Street",
        "address": "11 Panton Street, London, United Kingdom",
        "id": 247603,
        "lat": 51.509702,
        "lng": -0.131093
    },
    {
        "name": "Ripley's Believe It or Not",
        "address": "The London Pavillion, 1 Piccadilly Circus, London, United Kingdom",
        "id": 247604,
        "lat": 51.510154,
        "lng": -0.134152
    },
    {
        "name": "Excellence Of London",
        "address": "61 Regent Street, London, United Kingdom",
        "id": 247612,
        "lat": 51.510009,
        "lng": -0.135842
    },
    {
        "name": "Gymbox",
        "address": "42-49 Saint Martin's Lane, London, United Kingdom",
        "id": 247629,
        "lat": 51.510588,
        "lng": -0.126822
    },
    {
        "name": "Two Temple Place",
        "address": "2 Temple Place, London, United Kingdom",
        "id": 247643,
        "lat": 51.511542,
        "lng": -0.112502
    },
    {
        "name": "Inner Temple Gardens",
        "address": "London, United Kingdom",
        "id": 247644,
        "lat": 51.511598,
        "lng": -0.109689
    },
    {
        "name": "Jubilee Hall Gym",
        "address": "30 The Piazza, London, United Kingdom",
        "id": 247649,
        "lat": 51.51182,
        "lng": -0.121584
    },
    {
        "name": "The Courtauld Institute of Art",
        "address": "Somerset House, Strand, London, United Kingdom",
        "id": 247651,
        "lat": 51.511607,
        "lng": -0.117395
    },
    {
        "name": "Tutu's",
        "address": "Macadam Building, Surrey Street, London, United Kingdom",
        "id": 247654,
        "lat": 51.511338,
        "lng": -0.115318
    },
    {
        "name": "Fitness First Fetter Lane",
        "address": "Fetter Lane, Fleet Street, United Kingdom",
        "id": 247656,
        "lat": 51.514273,
        "lng": -0.10937
    },
    {
        "name": "Naval & Military Club",
        "address": "4 Saint James's Square, London, United Kingdom",
        "id": 247671,
        "lat": 51.508067,
        "lng": -0.134922
    },
    {
        "name": "The Stephen Wiltshire Gallery",
        "address": "England, 5 Royal Opera Arcade, Pall Mall, London, United Kingdom",
        "id": 247676,
        "lat": 51.507714,
        "lng": -0.132061
    },
    {
        "name": "Macintyre Art Advisory",
        "address": "33 Saint James's Square, London, United Kingdom",
        "id": 247689,
        "lat": 51.50731,
        "lng": -0.134169
    },
    {
        "name": "A Lounge",
        "address": "66 Trafalgar Square, London, United Kingdom",
        "id": 247699,
        "lat": 51.507363,
        "lng": -0.12886
    },
    {
        "name": "SEA LIFE London Aquarium",
        "address": "County Hall, Westminster Bridge Road, London, United Kingdom",
        "id": 247705,
        "lat": 51.502605,
        "lng": -0.118683
    },
    {
        "name": "London Film Museum South Bank",
        "address": "1st Floor, Riverside Building, County Hall, London, United Kingdom",
        "id": 247708,
        "lat": 51.502514,
        "lng": -0.118782
    },
    {
        "name": "Pleasuredrome",
        "address": "Arch, 124 Cornwall Road, London, United Kingdom",
        "id": 247709,
        "lat": 51.504016,
        "lng": -0.110481
    },
    {
        "name": "Chariots",
        "address": "101 Lower Marsh, London, United Kingdom",
        "id": 247710,
        "lat": 51.501249,
        "lng": -0.112043
    },
    {
        "name": "Soho Gyms Waterloo",
        "address": "11-15 Brad Street, Waterloo, United Kingdom",
        "id": 247711,
        "lat": 51.504125,
        "lng": -0.109064
    },
    {
        "name": "City Cruises",
        "address": "Westminster Pier,London,SW1A 2JR, United Kingdom",
        "id": 247714,
        "lat": 51.501646,
        "lng": -0.123856
    },
    {
        "name": "Southbank Skatepark",
        "address": "London, United Kingdom",
        "id": 247715,
        "lat": 51.506645,
        "lng": -0.116958
    },
    {
        "name": "Bank of England Museum",
        "address": "Threadneedle Street, London, United Kingdom",
        "id": 247735,
        "lat": 51.514144,
        "lng": -0.087561
    },
    {
        "name": "City Salsa",
        "address": "24 Cornhill, London, Bank, United Kingdom",
        "id": 247744,
        "lat": 51.513242,
        "lng": -0.087096
    },
    {
        "name": "CrossFit Central London",
        "address": "57 Ewer Street, London, United Kingdom",
        "id": 247751,
        "lat": 51.50393,
        "lng": -0.099457
    },
    {
        "name": "Bankside Health Club",
        "address": "Unit 11a Blue Fin Building, 110 Southwark Street, London, United Kingdom",
        "id": 247752,
        "lat": 51.505955,
        "lng": -0.100197
    },
    {
        "name": "Kirkaldy Testing Museum",
        "address": "99 Southwark Street, London, United Kingdom",
        "id": 247753,
        "lat": 51.506045,
        "lng": -0.101574
    },
    {
        "name": "Old Operating Theatre Museum & Herb Garret",
        "address": "9a Saint Thomas Street, London, United Kingdom",
        "id": 247772,
        "lat": 51.505016,
        "lng": -0.088653
    },
    {
        "name": "Floatworks LTD",
        "address": "1 Thrale Street, City of London, United Kingdom",
        "id": 247775,
        "lat": 51.504955,
        "lng": -0.094164
    },
    {
        "name": "La Pollera Colora",
        "address": "Titos, 4-6 London Bridge Street, London Bridge, London, SE1 9SG, United Kingdom",
        "id": 247778,
        "lat": 51.505459,
        "lng": -0.088504
    },
    {
        "name": "Florence Nightingale Museum",
        "address": "2 Lambeth Palace Road, London, United Kingdom",
        "id": 247794,
        "lat": 51.50015,
        "lng": -0.117689
    },
    {
        "name": "Paris Gymnasium",
        "address": "73 Goding Street, London, United Kingdom",
        "id": 247796,
        "lat": 51.48756,
        "lng": -0.122233
    },
    {
        "name": "Hidden",
        "address": "100 Tinworth Street, Vauxhall, London, United Kingdom",
        "id": 247797,
        "lat": 51.489887,
        "lng": -0.122344
    },
    {
        "name": "Fashion and Textile Museum",
        "address": "83 Bermondsey Street, London, United Kingdom",
        "id": 247842,
        "lat": 51.501171,
        "lng": -0.081801
    },
    {
        "name": "Soho Gyms",
        "address": "13-16, Empire Square, Long Lane, London, United Kingdom",
        "id": 247845,
        "lat": 51.500574,
        "lng": -0.091018
    },
    {
        "name": "Fitness for Everybody",
        "address": "108 Weston Street, City of London, United Kingdom",
        "id": 247847,
        "lat": 51.499779,
        "lng": -0.085244
    },
    {
        "name": "Dickens Fields",
        "address": "London, United Kingdom",
        "id": 247856,
        "lat": 51.497204,
        "lng": -0.093062
    },
    {
        "name": "London College Of Communication",
        "address": "Elephant & Castle, London, United Kingdom",
        "id": 247857,
        "lat": 51.49446,
        "lng": -0.101243
    },
    {
        "name": "Forty Hall Country Park",
        "address": "Enfield, United Kingdom",
        "id": 247875,
        "lat": 51.671593,
        "lng": -0.06664
    },
    {
        "name": "David Lloyd - Enfield",
        "address": "Carterhatch Lane, Enfield, Middlesex, United Kingdom",
        "id": 247876,
        "lat": 51.659335,
        "lng": -0.061221
    },
    {
        "name": "Island Fitness",
        "address": "Island Centre Way, Enfield Island Village, Enfield, United Kingdom",
        "id": 247877,
        "lat": 51.668536,
        "lng": -0.01672
    },
    {
        "name": "Muscle Base Gym",
        "address": "280 Alma Road, Enfield, United Kingdom",
        "id": 247883,
        "lat": 51.650088,
        "lng": -0.035119
    },
    {
        "name": "Jubilee Park",
        "address": "London, United Kingdom",
        "id": 247889,
        "lat": 51.634783,
        "lng": -0.055278
    },
    {
        "name": "Pymmes Park",
        "address": "Victoria Road, London, United Kingdom",
        "id": 247915,
        "lat": 51.61599,
        "lng": -0.0729
    },
    {
        "name": "Nuffield Health Fitness & Wellbeing Centre",
        "address": "3, 175 New Road, London, United Kingdom",
        "id": 247922,
        "lat": 51.617063,
        "lng": -0.005574
    },
    {
        "name": "Tottenham Hotspur Football Club",
        "address": "Bill Nicholson Way, 748 High Road, London, United Kingdom",
        "id": 247935,
        "lat": 51.603459,
        "lng": -0.065746
    },
    {
        "name": "Tottenham Marshes",
        "address": "Watermead Way, London, United Kingdom",
        "id": 247936,
        "lat": 51.595863,
        "lng": -0.053704
    },
    {
        "name": "Images in Frames",
        "address": "59 Wood Street, United Kingdom",
        "id": 247956,
        "lat": 51.589362,
        "lng": -0.004182
    },
    {
        "name": "Tranquilstate",
        "address": "48 Bridge End, London, United Kingdom",
        "id": 247958,
        "lat": 51.598943,
        "lng": -0.00563
    },
    {
        "name": "Neverland Ranch",
        "address": "30 Lockwood Place, London, United Kingdom",
        "id": 247959,
        "lat": 51.608502,
        "lng": -0.016122
    },
    {
        "name": "Beauty Above",
        "address": "585A Forest Road, London, United Kingdom",
        "id": 247960,
        "lat": 51.590536,
        "lng": -0.018571
    },
    {
        "name": "Printexpert.Co.Uk",
        "address": "Waltham Park Way, London, United Kingdom",
        "id": 247962,
        "lat": 51.601119,
        "lng": -0.020915
    },
    {
        "name": "Repton Park",
        "address": "London, United Kingdom",
        "id": 247984,
        "lat": 51.602732,
        "lng": 0.06614
    },
    {
        "name": "Redbridge Cycling Centre",
        "address": "Forest Road, Ilford, United Kingdom",
        "id": 247985,
        "lat": 51.604562,
        "lng": 0.129508
    },
    {
        "name": "Fairlop Waters Country Park",
        "address": "Ilford, United Kingdom",
        "id": 247987,
        "lat": 51.593713,
        "lng": 0.106515
    },
    {
        "name": "Synergy Fitness Gym",
        "address": "Lake Forest House, Forest Road, Barkingside, United Kingdom",
        "id": 247989,
        "lat": 51.599365,
        "lng": 0.100445
    },
    {
        "name": "TTS Personal Training",
        "address": "Suite 2, Maybank Business Centre, 208 Maybank Road, London, United Kingdom",
        "id": 247996,
        "lat": 51.597164,
        "lng": 0.037103
    },
    {
        "name": "Bedford's Park",
        "address": "United Kingdom",
        "id": 248023,
        "lat": 51.605585,
        "lng": 0.19309
    },
    {
        "name": "Essex Hydro-garden Hydroponics",
        "address": "Unit 3A Tonbridge Works, Tonbridge Road, Romford, United Kingdom",
        "id": 248028,
        "lat": 51.599599,
        "lng": 0.217731
    },
    {
        "name": "Bedford's Park Visitor Centre",
        "address": "United Kingdom",
        "id": 248029,
        "lat": 51.615589,
        "lng": 0.190565
    },
    {
        "name": "Images in frames (Wanstead)",
        "address": "71 High Street Wanstead, London, East London, United Kingdom",
        "id": 248084,
        "lat": 51.578336,
        "lng": 0.025991
    },
    {
        "name": "Fit in Fitness",
        "address": "12C Heyworth Road, London, Hackney, United Kingdom",
        "id": 248105,
        "lat": 51.556528,
        "lng": -0.058014
    },
    {
        "name": "The Depot",
        "address": "38 Upper Clapton Road, London, United Kingdom",
        "id": 248108,
        "lat": 51.559921,
        "lng": -0.056023
    },
    {
        "name": "KO Bloodline Gym",
        "address": "152-156 Lower Clapton Road, United Kingdom",
        "id": 248116,
        "lat": 51.555678,
        "lng": -0.054589
    },
    {
        "name": "Hackney Picturehouse",
        "address": "270 Mare Street, London, United Kingdom",
        "id": 248124,
        "lat": 51.544745,
        "lng": -0.055253
    },
    {
        "name": "Stonebridge Gardens",
        "address": "London, United Kingdom",
        "id": 248130,
        "lat": 51.539228,
        "lng": -0.074791
    },
    {
        "name": "Other Cafe and Gallery",
        "address": "48 Balls Pond Road, London, United Kingdom",
        "id": 248131,
        "lat": 51.546131,
        "lng": -0.078374
    },
    {
        "name": "Titan Fitness Centre",
        "address": "164 Mare Street, London, United Kingdom",
        "id": 248137,
        "lat": 51.540483,
        "lng": -0.055274
    },
    {
        "name": "Wanstead Flats",
        "address": "Epping Forest, London, United Kingdom",
        "id": 248158,
        "lat": 51.557024,
        "lng": 0.025381
    },
    {
        "name": "Wick Woodland",
        "address": "London, United Kingdom",
        "id": 248166,
        "lat": 51.551153,
        "lng": -0.024231
    },
    {
        "name": "Valentines Park",
        "address": "Ilford, United Kingdom",
        "id": 248191,
        "lat": 51.570052,
        "lng": 0.071087
    },
    {
        "name": "Wanstead Leisure Centre",
        "address": "Redbridge La West, Wanstead, London, United Kingdom",
        "id": 248192,
        "lat": 51.575458,
        "lng": 0.036494
    },
    {
        "name": "Seven Kings Park Bandstand",
        "address": "Ilford, United Kingdom",
        "id": 248205,
        "lat": 51.573499,
        "lng": 0.09969
    },
    {
        "name": "Redbridge Central Library and Museum",
        "address": "Clements Road, London, United Kingdom",
        "id": 248215,
        "lat": 51.558249,
        "lng": 0.075252
    },
    {
        "name": "BeautyServices4u",
        "address": "138 South Esk Road, London, Forestgate, United Kingdom",
        "id": 248223,
        "lat": 51.543103,
        "lng": 0.039472
    },
    {
        "name": "EasyGym",
        "address": "Winston Way, Ilford, United Kingdom",
        "id": 248224,
        "lat": 51.556976,
        "lng": 0.070702
    },
    {
        "name": "The Paradise Spa",
        "address": "425 Becontree Avenue, Dagenham, United Kingdom",
        "id": 248243,
        "lat": 51.558687,
        "lng": 0.128733
    },
    {
        "name": "Loxford Park Toilets",
        "address": "Ilford, United Kingdom",
        "id": 248245,
        "lat": 51.54715,
        "lng": 0.08055
    },
    {
        "name": "Broadway Boutique",
        "address": "36 Broadway Market, London, United Kingdom",
        "id": 248262,
        "lat": 51.536614,
        "lng": -0.061674
    },
    {
        "name": "Two Columbia Road",
        "address": "2 Columbia Road, London, United Kingdom",
        "id": 248270,
        "lat": 51.527989,
        "lng": -0.07598
    },
    {
        "name": "Geffrye Museum Gardens",
        "address": "London, United Kingdom",
        "id": 248272,
        "lat": 51.531657,
        "lng": -0.076811
    },
    {
        "name": "Hundred Years Gallery",
        "address": "13 Pearson Street, London, United Kingdom",
        "id": 248274,
        "lat": 51.533044,
        "lng": -0.076254
    },
    {
        "name": "Guerilla Galleries (London)",
        "address": "35 Kingsland Road, London, United Kingdom",
        "id": 248283,
        "lat": 51.529086,
        "lng": -0.077884
    },
    {
        "name": "Nelly Duff",
        "address": "156 Columbia Road, City of London, United Kingdom",
        "id": 248288,
        "lat": 51.529624,
        "lng": -0.068925
    },
    {
        "name": "Gallery Primo Alonso",
        "address": "395-397 Hackney Road, London, United Kingdom",
        "id": 248292,
        "lat": 51.53176,
        "lng": -0.062794
    },
    {
        "name": "Apiary Studios",
        "address": "458 Hackney Road, London, United Kingdom",
        "id": 248293,
        "lat": 51.532215,
        "lng": -0.059006
    },
    {
        "name": "KO Gym",
        "address": "186 Bancroft Road, London, United Kingdom",
        "id": 248312,
        "lat": 51.525693,
        "lng": -0.048912
    },
    {
        "name": "Paradise Gardens",
        "address": "Paradise Row, London, United Kingdom",
        "id": 248330,
        "lat": 51.527987,
        "lng": -0.055746
    },
    {
        "name": "Market Sports",
        "address": "1-6 Bateman's Row, London, United Kingdom",
        "id": 248347,
        "lat": 51.525411,
        "lng": -0.079403
    },
    {
        "name": "Aegis Training - London",
        "address": "16 Hewett Street, London, United Kingdom",
        "id": 248377,
        "lat": 51.523052,
        "lng": -0.079771
    },
    {
        "name": "Inquadra Studio",
        "address": "78 Luke Street, United Kingdom",
        "id": 248382,
        "lat": 51.524206,
        "lng": -0.081839
    },
    {
        "name": "OnPoint Training Ltd",
        "address": "16 Hewett Street, London, United Kingdom",
        "id": 248386,
        "lat": 51.523052,
        "lng": -0.079771
    },
    {
        "name": "The Brick Lane Gallery",
        "address": "196 Brick Lane, London, United Kingdom",
        "id": 248395,
        "lat": 51.523905,
        "lng": -0.071423
    },
    {
        "name": "Radio London Hair Salon",
        "address": "Unit 5, 93-97 Redchurch Street, London, United Kingdom",
        "id": 248396,
        "lat": 51.524755,
        "lng": -0.072918
    },
    {
        "name": "Rocket Gallery",
        "address": "Tea Building, 56 Shoreditch High Street, London, United Kingdom",
        "id": 248400,
        "lat": 51.523792,
        "lng": -0.076534
    },
    {
        "name": "type",
        "address": "66 Sclater Street, London, United Kingdom",
        "id": 248404,
        "lat": 51.523511,
        "lng": -0.073162
    },
    {
        "name": "Maverik Showroom",
        "address": "68-72 Redchurch Street, London, United Kingdom",
        "id": 248408,
        "lat": 51.524355,
        "lng": -0.074512
    },
    {
        "name": "Muscleworks Gym London",
        "address": "2 Hague Street, London, United Kingdom",
        "id": 248421,
        "lat": 51.526411,
        "lng": -0.063255
    },
    {
        "name": "Beach London",
        "address": "20 Cheshire Street, London, United Kingdom",
        "id": 248423,
        "lat": 51.523461,
        "lng": -0.07058
    },
    {
        "name": "Raven Row",
        "address": "56 Artillery Lane, London, United Kingdom",
        "id": 248437,
        "lat": 51.518163,
        "lng": -0.076764
    },
    {
        "name": "Whitechapel Gallery",
        "address": "77-82 Whitechapel High Street, London, United Kingdom",
        "id": 248439,
        "lat": 51.515952,
        "lng": -0.070212
    },
    {
        "name": "The Klinik",
        "address": "16 Devonshire Row, London, United Kingdom",
        "id": 248442,
        "lat": 51.516958,
        "lng": -0.080733
    },
    {
        "name": "SPHERE GALLERY",
        "address": "73 Brushfield Street, Old Spitalfields Market, London, United Kingdom",
        "id": 248444,
        "lat": 51.519176,
        "lng": -0.075927
    },
    {
        "name": "CrossFit London",
        "address": "The New Blackboard Gym, Arch 9 Malcolm Place, London, United Kingdom",
        "id": 248481,
        "lat": 51.524591,
        "lng": -0.05355
    },
    {
        "name": "Qmotion",
        "address": "432 Bancroft Road, London, United Kingdom",
        "id": 248482,
        "lat": 51.523185,
        "lng": -0.043084
    },
    {
        "name": "HMS Belfast",
        "address": "The Queen's Walk, Tooley Street, London, United Kingdom",
        "id": 248545,
        "lat": 51.506579,
        "lng": -0.081389
    },
    {
        "name": "St Georges Swimming Pool",
        "address": "221 The Highway, London, United Kingdom",
        "id": 248546,
        "lat": 51.509797,
        "lng": -0.058307
    },
    {
        "name": "L A Fitness",
        "address": "48 Leadenhall Street, London, United Kingdom",
        "id": 248548,
        "lat": 51.513328,
        "lng": -0.080244
    },
    {
        "name": "No1 Studio Training",
        "address": "108 Maltings Place, 169 Tower Bridge Road, London, United Kingdom",
        "id": 248550,
        "lat": 51.500612,
        "lng": -0.078607
    },
    {
        "name": "Virgin Active - Tower Bridge",
        "address": "Tower Bridge, Ibex House, 1 Haydon Street, London, United Kingdom",
        "id": 248551,
        "lat": 51.511978,
        "lng": -0.074704
    },
    {
        "name": "Circle Spa",
        "address": "Queen Elizabeth Street, London, United Kingdom",
        "id": 248552,
        "lat": 51.501496,
        "lng": -0.074434
    },
    {
        "name": "Fit4Less Low cost Health Club",
        "address": "90 Mansell Street, London, United Kingdom",
        "id": 248555,
        "lat": 51.5121,
        "lng": -0.073263
    },
    {
        "name": "Saint Dunstan in the East Church Garden",
        "address": "London, United Kingdom",
        "id": 248559,
        "lat": 51.509642,
        "lng": -0.082544
    },
    {
        "name": "Millwall Football Club",
        "address": "Verney Road, Bermondsey ,London England., United Kingdom",
        "id": 248607,
        "lat": 51.486139,
        "lng": -0.052013
    },
    {
        "name": "Reebok CrossFit Thames",
        "address": "Cannon Drive, London, United Kingdom",
        "id": 248614,
        "lat": 51.507529,
        "lng": -0.027043
    },
    {
        "name": "The O2 Bubble",
        "address": "The O2, London, United Kingdom",
        "id": 248618,
        "lat": 51.501675,
        "lng": 0.004028
    },
    {
        "name": "Quinn Clinics",
        "address": "54 Woodlands Park Road, Greenwich, United Kingdom",
        "id": 248636,
        "lat": 51.48351,
        "lng": 0.003645
    },
    {
        "name": "Brampton Park",
        "address": "London, United Kingdom",
        "id": 248655,
        "lat": 51.523869,
        "lng": 0.047325
    },
    {
        "name": "Greatfields Park",
        "address": "Barking, United Kingdom",
        "id": 248669,
        "lat": 51.532777,
        "lng": 0.090463
    },
    {
        "name": "Maryon Park",
        "address": "London, United Kingdom",
        "id": 248678,
        "lat": 51.489096,
        "lng": 0.043399
    },
    {
        "name": "Maryon Wilson Animal Park",
        "address": "Flamsteed Road, London, United Kingdom",
        "id": 248679,
        "lat": 51.486033,
        "lng": 0.043754
    },
    {
        "name": "Vue Dagenham",
        "address": "Dagenham Leisure Park, Cook Rd, Dagenham, United Kingdom",
        "id": 248708,
        "lat": 51.532387,
        "lng": 0.134911
    },
    {
        "name": "Virgin Active - Romford",
        "address": "4 The Brewery, Waterloo Road, Romford, United Kingdom",
        "id": 248711,
        "lat": 51.575576,
        "lng": 0.179472
    },
    {
        "name": "Hornchurch Country Park",
        "address": "United Kingdom",
        "id": 248718,
        "lat": 51.532424,
        "lng": 0.207313
    },
    {
        "name": "Peak Fitness",
        "address": "5-7 Reede Road, Town Centre, Dagenham, United Kingdom",
        "id": 248726,
        "lat": 51.542868,
        "lng": 0.149151
    },
    {
        "name": "Bedfont Lakes Country Park",
        "address": "United Kingdom",
        "id": 248794,
        "lat": 51.441351,
        "lng": -0.445823
    },
    {
        "name": "Rugby Football Union Twickenham",
        "address": "200 Whitton Road, Twickenham, United Kingdom",
        "id": 248821,
        "lat": 51.456053,
        "lng": -0.341402
    },
    {
        "name": "World Rugby Museum & Stadium Tours",
        "address": "Twickenham Stadium, Rugby Road, Twickenham, Middlesex, United Kingdom",
        "id": 248822,
        "lat": 51.456815,
        "lng": -0.340856
    },
    {
        "name": "The Gym",
        "address": "The Blenheim Centre, Prince Regent Rd, Hounslow, United Kingdom",
        "id": 248823,
        "lat": 51.470577,
        "lng": -0.362803
    },
    {
        "name": "Bikram Yoga Richmond",
        "address": "7-9 Church Walk, Richmond, United Kingdom",
        "id": 248840,
        "lat": 51.460518,
        "lng": -0.304124
    },
    {
        "name": "Aquarius Spa",
        "address": "Pools On The Park, Twickenham Road, Richmond, United Kingdom",
        "id": 248847,
        "lat": 51.465272,
        "lng": -0.305954
    },
    {
        "name": "Redlees Park",
        "address": "United Kingdom",
        "id": 248852,
        "lat": 51.467026,
        "lng": -0.330743
    },
    {
        "name": "Lovers Lights Gallery",
        "address": "64 The Green, Twickenham, United Kingdom",
        "id": 248883,
        "lat": 51.44446,
        "lng": -0.342366
    },
    {
        "name": "Herbal Lee",
        "address": "384 Richmond Road, Twickenham, United Kingdom",
        "id": 248902,
        "lat": 51.455624,
        "lng": -0.309994
    },
    {
        "name": "Design Fitness Personal Training",
        "address": "16A London Road, Twickenham, United Kingdom",
        "id": 248913,
        "lat": 51.447751,
        "lng": -0.328625
    },
    {
        "name": "Bushy Park",
        "address": "London, United Kingdom",
        "id": 248947,
        "lat": 51.409325,
        "lng": -0.332851
    },
    {
        "name": "Hampton Court Park (Home Park)",
        "address": "United Kingdom",
        "id": 248949,
        "lat": 51.405588,
        "lng": -0.320925
    },
    {
        "name": "Playground",
        "address": "United Kingdom",
        "id": 248962,
        "lat": 51.428114,
        "lng": -0.330841
    },
    {
        "name": "GetBodyFit",
        "address": "The Rotunda, Clarence Street, Kingston upon Thames, United Kingdom",
        "id": 248967,
        "lat": 51.411707,
        "lng": -0.299364
    },
    {
        "name": "Riverside Gallery",
        "address": "36 Barnes High Street, London, United Kingdom",
        "id": 248997,
        "lat": 51.473419,
        "lng": -0.251339
    },
    {
        "name": "Rocks Lane Multi Sport Centres",
        "address": "Rocks Lane, London, United Kingdom",
        "id": 248998,
        "lat": 51.471428,
        "lng": -0.236194
    },
    {
        "name": "Barnes Squash Club",
        "address": "251-261 Lonsdale Road, London, Barnes, United Kingdom",
        "id": 249002,
        "lat": 51.477661,
        "lng": -0.24872
    },
    {
        "name": "iSpa",
        "address": "319 Upper Richmond Road West, London, United Kingdom",
        "id": 249014,
        "lat": 51.464831,
        "lng": -0.264394
    },
    {
        "name": "Fulham Football Club",
        "address": "Craven Cottage, Stevenage Road, London, United Kingdom",
        "id": 249033,
        "lat": 51.475019,
        "lng": -0.221631
    },
    {
        "name": "Fulham Fitness Studio | empowered by PTbyPT",
        "address": "365 Fulham Palace Road, London, Fulham,, United Kingdom",
        "id": 249037,
        "lat": 51.474831,
        "lng": -0.214016
    },
    {
        "name": "Virgin Active - Fulham Pools",
        "address": "Fulham Pools , Normand Park, Lillie Road, London, United Kingdom",
        "id": 249048,
        "lat": 51.484772,
        "lng": -0.206779
    },
    {
        "name": "Gina Conway",
        "address": "612 Fulham Road, London, United Kingdom",
        "id": 249050,
        "lat": 51.476876,
        "lng": -0.203309
    },
    {
        "name": "The Pilates Room",
        "address": "London, 9 Filmer Mews, 75 Filmer Road, Fulham, London, United Kingdom",
        "id": 249052,
        "lat": 51.476492,
        "lng": -0.209137
    },
    {
        "name": "Gagliardi Gallery",
        "address": "509 King's Road, London, United Kingdom",
        "id": 249055,
        "lat": 51.480863,
        "lng": -0.184018
    },
    {
        "name": "Cupcake",
        "address": "11 Heathman's Road, London, United Kingdom",
        "id": 249060,
        "lat": 51.473834,
        "lng": -0.20271
    },
    {
        "name": "Eden Beauty Spa",
        "address": "641A Fulham Road, London, United Kingdom",
        "id": 249067,
        "lat": 51.479483,
        "lng": -0.199054
    },
    {
        "name": "Premier Laser Clinic",
        "address": "3-5 Vanston Place, London, United Kingdom",
        "id": 249068,
        "lat": 51.481463,
        "lng": -0.198891
    },
    {
        "name": "Spa Clinique",
        "address": "580 Fulham Road, London, United Kingdom",
        "id": 249071,
        "lat": 51.477738,
        "lng": -0.201641
    },
    {
        "name": "EDEN SPA",
        "address": "252-258 North End Road, London, United Kingdom",
        "id": 249084,
        "lat": 51.484185,
        "lng": -0.201767
    },
    {
        "name": "Amara Spa",
        "address": "18-20 Fulham High Street, London, United Kingdom",
        "id": 249101,
        "lat": 51.471147,
        "lng": -0.211187
    },
    {
        "name": "Energie Fitness Club",
        "address": "The Piper Building, Peterborough Road, London, United Kingdom",
        "id": 249122,
        "lat": 51.465798,
        "lng": -0.192904
    },
    {
        "name": "Richmond Park",
        "address": "Richmond, United Kingdom",
        "id": 249139,
        "lat": 51.45,
        "lng": -0.283333
    },
    {
        "name": "Wimbledon and Putney Commons",
        "address": "Windmill Road, Wimbledon Common, London, United Kingdom",
        "id": 249140,
        "lat": 51.436645,
        "lng": -0.233547
    },
    {
        "name": "BSA Snowboarding",
        "address": "London, United Kingdom",
        "id": 249158,
        "lat": 51.455071,
        "lng": -0.200866
    },
    {
        "name": "Putney Heath",
        "address": "London, United Kingdom",
        "id": 249161,
        "lat": 51.450261,
        "lng": -0.23269
    },
    {
        "name": "Carlyle's House",
        "address": "24 Cheyne Row, Chelsea, United Kingdom",
        "id": 249189,
        "lat": 51.484069,
        "lng": -0.169721
    },
    {
        "name": "Stars Gyms Ltd",
        "address": "Unit 5, Albion Riverside Building, 8 Hester Road, London, United Kingdom",
        "id": 249191,
        "lat": 51.480554,
        "lng": -0.168892
    },
    {
        "name": "The Shop At Bluebird",
        "address": "350 King's Road, London, United Kingdom",
        "id": 249194,
        "lat": 51.484938,
        "lng": -0.175217
    },
    {
        "name": "English Gardening School",
        "address": "66 Royal Hospital Road, London, United Kingdom",
        "id": 249202,
        "lat": 51.479359,
        "lng": -0.179213
    },
    {
        "name": "Johnson Picture Framing & Galleries",
        "address": "56 Battersea Bridge Road, London, United Kingdom",
        "id": 249209,
        "lat": 51.478668,
        "lng": -0.170454
    },
    {
        "name": "Chelsea Fine Arts",
        "address": "Chelsea Wharf, 15 Lots Rd, London, United Kingdom",
        "id": 249210,
        "lat": 51.479416,
        "lng": -0.179209
    },
    {
        "name": "Fybre Fitness Hub",
        "address": "25 Northcote Road, London, United Kingdom",
        "id": 249259,
        "lat": 51.459884,
        "lng": -0.166441
    },
    {
        "name": "Results By Design Personal Training",
        "address": "292 Battersea Park Road, London, United Kingdom",
        "id": 249260,
        "lat": 51.471647,
        "lng": -0.167876
    },
    {
        "name": "Kalyana Spa",
        "address": "54 Battersea Rise, London, United Kingdom",
        "id": 249267,
        "lat": 51.460937,
        "lng": -0.165784
    },
    {
        "name": "Artichoke Pilates",
        "address": "Artichoke Mews, Artichoke Place, London, United Kingdom",
        "id": 249323,
        "lat": 51.47437,
        "lng": -0.090792
    },
    {
        "name": "Pepilates",
        "address": "17c Welmar Mews, 154 Clapham Park Road, London, United Kingdom",
        "id": 249339,
        "lat": 51.459121,
        "lng": -0.132308
    },
    {
        "name": "Knight Webb Gallery",
        "address": "54 Atlantic Road, London, United Kingdom",
        "id": 249348,
        "lat": 51.461543,
        "lng": -0.111699
    },
    {
        "name": "Virgin Active - Streatham",
        "address": "20 Ockley Road, London, United Kingdom",
        "id": 249366,
        "lat": 51.432957,
        "lng": -0.129976
    },
    {
        "name": "London Sewing Machine Museum",
        "address": "308-312 Balham High Road, London, United Kingdom",
        "id": 249367,
        "lat": 51.436674,
        "lng": -0.158877
    },
    {
        "name": "Aardvark Framing",
        "address": "78A Franciscan Road, London, United Kingdom",
        "id": 249372,
        "lat": 51.430344,
        "lng": -0.156362
    },
    {
        "name": "Fitness First",
        "address": "7 Streatham High Road, London, United Kingdom",
        "id": 249400,
        "lat": 51.437044,
        "lng": -0.12736
    },
    {
        "name": "The Workshop Hair & Spa Ltd",
        "address": "12 The High Parade, Streatham High Road, London, United Kingdom",
        "id": 249407,
        "lat": 51.43439,
        "lng": -0.128025
    },
    {
        "name": "Floraselect | Garden Centre London",
        "address": "20-22 Grove Vale, London, United Kingdom",
        "id": 249409,
        "lat": 51.461665,
        "lng": -0.080384
    },
    {
        "name": "Creature Company Pet Shop",
        "address": "54 The Broadway, London, United Kingdom",
        "id": 249451,
        "lat": 51.419885,
        "lng": -0.20307
    },
    {
        "name": "Merton Dental",
        "address": "134 Kingston Road, London, United Kingdom",
        "id": 249454,
        "lat": 51.414888,
        "lng": -0.20026
    },
    {
        "name": "Revolution Lifestyles Personal Training",
        "address": "London, United Kingdom",
        "id": 249462,
        "lat": 51.413254,
        "lng": -0.18317
    },
    {
        "name": "Morden Hall Park",
        "address": "Morden Road, Morden, London, United Kingdom",
        "id": 249496,
        "lat": 51.402,
        "lng": -0.183922
    },
    {
        "name": "Cannon Hill Common",
        "address": "Cannon Hill Lane, London, United Kingdom",
        "id": 249497,
        "lat": 51.401231,
        "lng": -0.218812
    },
    {
        "name": "FIGHT KNIGHTS BOXING CLUB",
        "address": "Thomas Wall Pavilion, Thomas Wall Park, Morden, Green Lane, United Kingdom",
        "id": 249507,
        "lat": 51.384504,
        "lng": -0.191638
    },
    {
        "name": "Little Jannah Organic Hair & Beauty Spa",
        "address": "532 Streatham High Road, London, United Kingdom",
        "id": 249541,
        "lat": 51.417515,
        "lng": -0.126872
    },
    {
        "name": "Watermead Country Park",
        "address": "Wanlip Road, United Kingdom",
        "id": 249558,
        "lat": 51.393825,
        "lng": -0.17056
    },
    {
        "name": "Recording 4 Fun",
        "address": "Unit 19, Croydon House Business Centre, 1 Peall Road, Croydon, United Kingdom",
        "id": 249570,
        "lat": 51.388553,
        "lng": -0.122131
    },
    {
        "name": "Go Gym Ltd",
        "address": "6 Sutton Park Road, Sutton, United Kingdom",
        "id": 249609,
        "lat": 51.360392,
        "lng": -0.194799
    },
    {
        "name": "Dreaming Green Gardeners & Landscapers",
        "address": "2A Victoria Road, Sutton, United Kingdom",
        "id": 249610,
        "lat": 51.362036,
        "lng": -0.1837
    },
    {
        "name": "Honeywood Museum",
        "address": "United Kingdom",
        "id": 249627,
        "lat": 51.365194,
        "lng": -0.16509
    },
    {
        "name": "Solutions Health & Fitness",
        "address": "1 Lansdowne Road, Croydon, United Kingdom",
        "id": 249652,
        "lat": 51.376615,
        "lng": -0.097229
    },
    {
        "name": "Larry Flynt's Hustler Club UK",
        "address": "12-20 Crown Hill, Croydon, United Kingdom",
        "id": 249654,
        "lat": 51.373772,
        "lng": -0.101197
    },
    {
        "name": "Nuffield Health Fitness & Wellbeing Centre",
        "address": "Unit 1, Colonnades, 619 Purley Way, Croydon, United Kingdom",
        "id": 249656,
        "lat": 51.356829,
        "lng": -0.11554
    },
    {
        "name": "Riddlesdown",
        "address": "United Kingdom",
        "id": 249676,
        "lat": 51.326393,
        "lng": -0.096022
    },
    {
        "name": "OPAL Picture Frames and Gallery",
        "address": "114 Imperial Parade, Brighton Road, Purley, United Kingdom",
        "id": 249678,
        "lat": 51.332212,
        "lng": -0.124375
    },
    {
        "name": "Corpus Fitness",
        "address": "48 Norman Avenue, South Croydon, United Kingdom",
        "id": 249681,
        "lat": 51.345184,
        "lng": -0.099122
    },
    {
        "name": "BEARSPACE gallery",
        "address": "152 Deptford High Street, London, United Kingdom",
        "id": 249702,
        "lat": 51.479226,
        "lng": -0.025975
    },
    {
        "name": "Somerville Adventure Playground",
        "address": "London, United Kingdom",
        "id": 249707,
        "lat": 51.473125,
        "lng": -0.050338
    },
    {
        "name": "Cocoa's Personal Training",
        "address": "London, United Kingdom",
        "id": 249725,
        "lat": 51.474998,
        "lng": -0.060781
    },
    {
        "name": "The Fan Museum",
        "address": "12 Croom's Hill, London, United Kingdom",
        "id": 249751,
        "lat": 51.479135,
        "lng": -0.008052
    },
    {
        "name": "Blackheath",
        "address": "London, United Kingdom",
        "id": 249755,
        "lat": 51.47172,
        "lng": -0.000279
    },
    {
        "name": "National Maritime Museum Gardens",
        "address": "London, United Kingdom",
        "id": 249762,
        "lat": 51.481835,
        "lng": -0.00476
    },
    {
        "name": "energie Fitness Club Forest Hill",
        "address": "26 London Road, Forest Hill, United Kingdom",
        "id": 249811,
        "lat": 51.439455,
        "lng": -0.05496
    },
    {
        "name": "Grow Mayow",
        "address": "Mayow Park, Mayow road, London, United Kingdom",
        "id": 249814,
        "lat": 51.429958,
        "lng": -0.048749
    },
    {
        "name": "Honor Oak Gallery",
        "address": "52 Honor Oak Park, London, United Kingdom",
        "id": 249815,
        "lat": 51.449428,
        "lng": -0.04375
    },
    {
        "name": "Kashgar Tribal Art",
        "address": "139 Victoria Way, London, United Kingdom",
        "id": 249861,
        "lat": 51.481558,
        "lng": 0.031013
    },
    {
        "name": "South Norwood Lake & Grounds",
        "address": "Woodvale Avenue, London, United Kingdom",
        "id": 249930,
        "lat": 51.409611,
        "lng": -0.074921
    },
    {
        "name": "Kirkdale Bookshop & Gallery",
        "address": "272 Kirkdale, London, United Kingdom",
        "id": 249933,
        "lat": 51.426523,
        "lng": -0.055641
    },
    {
        "name": "Bonnys Beauty",
        "address": "84 High Street, London, United Kingdom",
        "id": 249943,
        "lat": 51.415962,
        "lng": -0.054511
    },
    {
        "name": "Frames & Art",
        "address": "230 High St, Bromley, United Kingdom",
        "id": 249960,
        "lat": 51.406391,
        "lng": 0.012825
    },
    {
        "name": "Kumon Beckenham Study Centre",
        "address": "24 Beckenham Road, Beckenham, United Kingdom",
        "id": 249987,
        "lat": 51.40164,
        "lng": -0.038927
    },
    {
        "name": "Oakley Fitness LTD",
        "address": "Welness House, 15 Chatsworth Parade, Petts Wood, United Kingdom",
        "id": 250052,
        "lat": 51.388842,
        "lng": 0.072999
    },
    {
        "name": "Hall Place Gardens",
        "address": "Bourne Road, Dartford, Bexley, United Kingdom",
        "id": 250084,
        "lat": 51.447259,
        "lng": 0.158144
    },
    {
        "name": "T Hats Gallery",
        "address": "57 Heath Way, Erith, United Kingdom",
        "id": 250094,
        "lat": 51.470275,
        "lng": 0.166119
    }
]